치매센터명,치매센터유형,소재지도로명주소,소재지지번주소,위도,경도,설립연월,건축물면적,부대시설정보,의사인원수,간호사인원수,사회복지사인원수,기타인원현황,운영기관명,운영기관대표자명,운영기관전화번호,운영위탁일자,주요치매관리프로그램소개,관리기관전화번호,관리기관명,데이터기준일자,제공기관코드,제공기관명
합천군 치매안심센터,치매안심센터,경상남도 합천군 합천읍 동서로 39,,35.56792811,128.1567534,2017-01,,,1,11.0,1.0,임상심리사(1)+작업치료사(2)+기타(3),경상남도 합천군보건소,안명기,055-930-4091,2017-12-28,치매조기검진+치매진단검사+치매치료관리비 지원+치매환자 조호물품 제공+치매환자 실종예방 사업+치매환자 쉼터 운영+치매환자 가족교실 운영,055-930-4000,경상남도 합천군보건소,2026-05-12,5480000,경상남도 합천군
거창군치매안심센터,치매안심센터,경상남도 거창군 거창읍 거함대로 3079,경상남도 거창군 거창읍 송정리 1095,35.6809363,127.8987274,2018-12,888.0,사무실2+쉼터+프로그램실2+진료실+상담실,0,13.0,2.0,0,거창군 보건소,이정헌,055-940-7910,,치매환자 상담 및 등록 관리+치매 조기검진 및 진단+치매치료관리비 지원+치매환자 조호물품지원+노인성 질환자 위생용품 지원+치매 실종예방·배회감지기 지원+치매 안심 프로그램 운영 치매파트너 양성+치매극복 선도기관 지정+치매환자 공공 후견 지원+인식개선 및 홍보 사업+치매예방교육 등,055-940-7910,경상남도 거창군청,2026-03-18,5470000,경상남도 거창군
창녕군 치매안심센터,치매안심센터,경상남도 창녕군 창녕읍 군청1길 37,경상남도 창녕군 창녕읍 교리 996-1,35.543618,128.490055,2018-07,524.97,,2,8.0,3.0,작업치료사(2)+행정(4),창녕군보건소,권석규,055-530-7503,,치매환자 등록 및 관리+치매조기검진+치매예방교육 및 인식개선+치매가족교육 및 자조모임+쉼터프로그램운영 등,055-530-7503,경상남도 창녕군보건소,2026-05-08,5410000,경상남도 창녕군
영천시치매안심센터,치매안심센터,경상북도 영천시 옛군청 1길 31,경상북도 영천시 문내동 152-1,35.9687455,128.9324014,2018-12,614.39,사무실(1)+진료실(1)+검진실(1)+상담실(1)+카페(1)+프로그램실(1),0,13.0,2.0,작업치료사(4)+기타(2),영천시보건소,박선희,054-339-7845,,치매선별검사+치매예방홍보+치매서포터즈운영+치매진단검사+예방프로그램 운영+인지강화프로그램 운영+치매환자프로그램 운영+치매치료관리비 지원+치매대상자 사례관리+치매대상자 실종예방 배회인식표 발급 및 지문등록+조호물품 지원,054-339-7844,경상북도 영천시 보건소,2026-06-18,5100000,경상북도 영천시
영주시치매안심센터,치매안심센터,경상북도 영주시 영주로159번길 73,경상북도 영주시 영주동 479-1,36.8287755,128.6159883,2018-12,1255.89,사무실(2)+상담실(1)+쉼터(1)+프로그램실(3)+화장실(2),1,10.0,3.0,4,영주시치매안심센터,,054-639-5733,,치매상담등록+사례관리+조기검진+쉼터지원 및 가족지원+인식개선 홍보 등,054-777-6400,경상북도 광역치매센터,2026-06-17,5090000,경상북도 영주시
구미시선산치매안심센터,치매안심센터,경상북도 구미시 선산읍 선주로 121,경상북도 구미시 선산읍 동부리 544-1,36.24417904,128.2999491,2019-01,566.29,사무실(1)+진료실(1)+프로그램실(1)+강당(1)+검사실(2)+가족카페(1),0,10.0,2.0,작업치료사(3),구미시선산치매안심센터,이은주,054-480-4350,,치매환자 등록 및 상담+맞춤형 사례관리+치매조기검진+치매환자쉼터 및 예방교실+치매가족지원사업+치매인식개선사업 등,054-880-3798,경상북도청,2026-06-25,5080000,경상북도 구미시
구미치매안심센터,치매안심센터,경상북도 구미시 지산11길 8-1,경상북도 구미시 지산동 853-141,36.139463,128.3455203,2019-12,738.66,사무실(1)+진료실(1)+검사실(1)+상담실(1)+프로그램실(2)+가족카페(1)+교육실(1)+소회의실(1)+쉼터(1),0,8.0,3.0,작업치료사(3)+임상심리사(1)+행정인력(3),구미치매안심센터,이경문,054-480-4880,,치매환자 등록 및 상담+맞춤형 사례관리+치매조기검진+치매환자쉼터 및 예방교실+치매가족지원사업+치매인식개선사업 등,054-880-3798,경상북도청,2026-06-25,5080000,경상북도 구미시
장수치매정신통합센터,치매안심센터,"전북특별자치도 장수군 장수읍 장천로 255-10, 2층",전북특별자치도 장수군 장수읍 노하리 364,35.65513121,127.5191364,2018-12,427.92,가족카페+프로그램실+쉼터+상담실+검진실+사무실,1,6.0,1.0,작업치료사(2)+팀장(1),전북특별자치도 장수군 치매안심센터,노승무,063-350-2670,,상담 등록서비스+치매조기검진서비스+치매치료관리비 지원+조호물품 지원+맞춤형 사례관리 서비스+치매환자 쉼터 프로그램 운영+치매환자 가족지원서비스+치매예방관리사업+치매인식개선사업,063-351-8000,전북특별자치도 장수군 보건의료원,2026-06-01,4751000,전북특별자치도 장수군
충청남도 예산군 치매안심센터,치매안심센터,충청남도 예산군 예산읍 군청로 22,충청남도 예산군 예산읍 예산리 777,36.68088054,126.8448507,2018-11,427.55,교육실+치매검진(상담)실+ 치매프로그램실+옥상정원,1,11.0,1.0,,예산군보건소,최승묵,041-339-6140,,기억이음 청춘학교,041-339-6140,충청남도 예산군보건소,2026-04-07,4610000,충청남도 예산군
속초시치매안심센터,치매안심센터,강원특별자치도 속초시 수복로 36,강원특별자치도 속초시 교동 980,38.196194,128.5759527,2018-12,333.0,사무실(1)+조기검진실(1)+기억채움실(1)+카페(1)+쉼터(1)+로비(1),1,6.0,1.0,사회복무(1)+대체인력(1),강원특별자치도 속초시 보건소,이상현,033-639-2071,2018-12-27,치매조기검진+어울림 쉼터 인지재활 프로그램+인지강화 프로그램+경로당 치매예방 프로그램+치매가족  헤아림 프로그램+치매가족 헤아림 교육+자조모임 사랑회 운영+치매치료관리비 지원,033-639-2926,강원특별자치도 속초시 보건소,2026-06-11,4231000,강원특별자치도 속초시
경기도 과천시 치매안심센터,치매안심센터,경기도 과천시 관문로 69 과천시치매안심센터 1층,경기도 과천시 중앙동 1-3 과천시치매안심센터 1층,37.43021609,126.986778,2017-12,2838.0,상담실(2)+가족카페(1)+프로그램실(2),1,5.0,1.0,작업치료사(3)+임상심리사(1),과천시보건소,류정현,02-2150-3596,,치매상담+등록관리+조기검진+단기쉼터운영+가족지원+실종예방지원+인식개선사업+조호물품 및 치매치료관리비 지원+치매예방교실+치매가족교실+치매파트너교육+치매공공후견인 발굴+치매안심마을+맞춤형사례관리+고위험군 인지강화교실 운영 등,02-2150-3596,경기도 과천시청,2026-06-26,3970000,경기도 과천시
부천시치매안심센터,치매안심센터,경기도 부천시 원미구 길주로 410,경기도 부천시 원미구 춘의동 163-7,37.50363121,126.7880203,2019-12,98.72,,0,13.0,3.0,작업치료사(1)+행정(6),부천시보건소,송정원,032-625-4421,,치매환자의 등록·관리+치매의 예방·교육 및 홍보+치매조기검진,032-625-4421,경기도 부천시청,2026-06-24,3860000,경기도 부천시
분당구보건소 치매안심센터,치매안심센터,경기도 성남시 분당구 내정로 94(정자동 한솔마을 711동 1층),경기도 성남시 분당구 정자동 101,37.367389,127.115509,2018-12,564.0,진료실(1)+사무실(1)+프로그램실(3)+쉼터(1)+가족카페(1) 등,0,12.0,1.0,협력의사(2)+임상심리사(2)+작업치료사(3)+기타(2)+청소(1),분당구보건소,구성수,031-729-8783,,상담 및 등록관리+치매 조기검진+치매예방관리+치매환자 쉼터 운영+치매지원 서비스+치매가족 및 보호자 지원사업+치매 인식개선 및 교육홍보+치매 안심마을 운영+치매 공공 후견사업,031-729-8978,경기도 성남시 분당구보건소,2026-05-29,3780000,경기도 성남시
중원구보건소 치매안심센터,치매안심센터,경기도 성남시 중원구 금상로 137(상대원동),경기도 성남시 중원구 상대원동 269-10,37.442188,127.170527,2017-01,1939.9,사무실(3)+회의실(1)+쉼터(1)+프로그램실(4)+검사실(2)+상담실(2)+진료실(1)+카페1개등,1,7.0,6.0,임상심리사(1)+작업치료사(5),(의)롯데의료재단,김천주,031-739-3030,2023-01-01,상담 및 등록관리+치매 조기검진+치매예방관리+치매환자 쉼터 운영+치매지원 서비스+치매가족 및 보호자 지원사업+치매 인식개선 및 교육홍보+치매 안심마을 운영+치매 공공 후견사업,031-729-3922,경기도 성남시 중원구 보건소,2026-05-29,3780000,경기도 성남시
수정구보건소 치매안심센터,치매안심센터,경기도 성남시 수정구 수정로 218,경기도 성남시 수정구 신흥동 3435,37.444312,127.14406,2017-01,47.0,사무실(1)+프로그램실(3)+상담실(2)+검진실(1)+교육상담실+가족카페+정원등,0,12.0,2.0,작업치료사(3)+기간제 사회복지사(3)+청년인턴(1),수정구보건소,강연하,031-729-3879,,상담 및 등록관리+치매 조기검진+치매예방관리+치매환자 쉼터 운영+치매지원 서비스+치매가족 및 보호자 지원사업+치매 인식개선 및 교육홍보+치매 안심마을 운영+치매 공공 후견사업,031-729-3879,경기도 성남시 수정구 보건소,2026-05-29,3780000,경기도 성남시
울산광역시남구치매안심센터,치매안심센터,울산광역시 남구 삼산중로 132,울산광역시 남구 삼산동 1538-4,35.54535759,129.3363268,2019-12,997.14,사무실(1)+검진실(1)+상담실(3)+심리안정실(1)+인지체험관(1)+쉼터(1)+교육실(1),0,6.0,1.0,임상심리사(1)+작업치료사(4)+임상병리사(1)+기타(1),남구보건소,공석,052-226-2323,,상담 및 등록관리사업+조기검진사업+쉼터운영사업+가족지원사업+치매인식개선홍보사업,052-226-2317,울산광역시 남구보건소,2026-05-22,3700000,울산광역시 남구
대전광역시 대덕구 치매안심센터,치매안심센터,"대전광역시 대덕구 동춘당로 187, 3층","대전광역시 대덕구 법동 192-1, 3층",36.367296,127.430828,2018-07,487.3,로비+사무실+교육·상담실+검진실+프로그램실(2)+가족카페,1,13.0,1.0,작업치료사(1)+임상심리사(1),대전광역시 대덕구보건소,이석우,042-608-5426,,"무료 치매검사, 치매 가족교육, 치매 예방교육, 치매 인지교실, 조호물품 제공 등",042-608-5426,대전광역시 대덕구,2026-06-23,3680000,대전광역시 대덕구
대전광역시유성구치매안심센터,치매안심센터,"대전광역시 유성구 박산로 177, 2층",대전광역시 유성구 구암동 91-6,36.3538097,127.3286392,2018-05,380.83,사무실(1)+프로그램실(3)+검사실(4)+센터(1),0,6.0,3.0,작업치료사(3)+임상심리사(1),유성구보건소,김주연,042-611-5018,,치매조기검진+치매환자 인지프로그램+가족지원사업+치매극복의 날 기념행사 등,042-611-5121,대전광역시 유성구청,2026-05-12,3670000,대전광역시 유성구
옹진군치매안심센터,치매안심센터,인천광역시 옹진군 백령면 백령로833번길 26-29,인천광역시 옹진군 백령면 북포리 522-6,37.95793845,124.6647433,2019-09,226.11,프로그램실+가족카페,0,1.0,0.0,의료기술(1),인천광역시 옹진군보건소,박혜련,032-899-3670,,쉼터+치매예방+인지강화교실,032-899-3670,인천광역시 옹진군보건소,2026-06-27,3580000,인천광역시 옹진군
효성평생건강센터,치매안심센터,인천광역시 계양구 봉오대로543번길 21,,37.532527,126.7086103,2019-12,549.0,사무실(2)+프로그램실(2)+화장실(2)+휴게실(1),0,1.0,0.0,의료기술(2)+운전(1)+청소(1),계양구보건소,이미숙,032-450-1845,,치매조기검진+치매환자지원사업+치매환자쉼터운영,032-450-1845,인천광역시 계양구보건소,2026-05-18,3550000,인천광역시 계양구
계양구보건소 치매안심센터,치매안심센터,인천광역시 계양구 계양문화로 63,,37.536446,126.736242,2018-12,494.0,사무실(2)+프로그램실(2)+화장실(2),2,14.0,1.0,의료기술(1)+보건(1)+행정(1)+운전(1),계양구보건소,이미숙,032-430-7867,,조기검진 및 등록관리+ 치매환자지원사업+ 치매예방관리사업+ 치매환자 쉼터운영+ 치매환자 가족및보호자지원사업+ 치매인식개선사업+ 맞춤형사례관리사업 등,032-430-7867,인천광역시 계양구보건소,2026-05-18,3550000,인천광역시 계양구
인천광역시 동구 구립 치매전담형 주간보호센터 동구동락,치매안심센터,인천광역시 동구 방축로 193,인천광역시 동구 송림동 297-20,37.47927144,126.6661296,2022-12,421.42,사무실(1)+생활실(1)+프로그램실(1)+물리치료실(1)+목욕실(1)+세탁실(1)+식당(1)+침실(2),0,2.0,1.0,요양보호사(6)+운전원(1),인천광역시 의료원,장석일,032-575-0019,2022-01-01,치매환자 신체활동 지원+기능 회복훈련+건강 및 간호관리+인지관리+치매환자와 가족에 대한 교육 및 지원,032-760-4942,인천광역시 동구보건소,2026-06-05,3500000,인천광역시 동구
인천광역시 동구 치매안심센터,치매안심센터,인천광역시 동구 방축로 193,인천광역시 동구 송림동 297-20,37.47927144,126.6661296,2021-12,1062.67,검사실(1)+진료실(1)+상담실(1)+가족카페(1)+프로그램실(3)+사무실(1)+회의실(1)+교육실(1),0,11.0,1.0,임상심리사(1)+임상병리사(1)+기타(6),인천광역시 동구보건소,임미숙,032-772-6307,,상담 및 등록관리+치매 조기검진+치매예방관리+치매환자 쉼터 운영+치매지원 서비스+치매가족 및 보호자 지원사업+치매 인식개선 및 교육·홍보 사업+치매 안심마을 운영,032-772-6307,인천광역시 동구보건소,2026-06-05,3500000,인천광역시 동구
대구남구치매안심센터,치매안심센터,대구광역시 남구 영선길 34,대구광역시 남구 대명동 2003,35.853883,128.5915237,2019-06,215.9,사무실(2)+교육실(1)+상담실(1)+검진실(3),0,9.0,2.0,작업치료사(3)+임상심리사(2),대구광역시 남구보건소,이명자,053-664-3694,,"치매조기검진사업, 치매환자 및 가족프로그램 운영, 치매예방교육 및 인식개선사업 등",053-664-3695,대구광역시 남구보건소,2026-05-01,3440000,대구광역시 남구
대구광역시중구치매안심센터,치매안심센터,대구광역시 중구 태평로 45,대구광역시 중구 태평로3가 174-1,35.87790606,128.5833355,2018-12,,사무실+검진실+프로그램실+치매가족카페,1,7.0,3.0,2,대구광역시중구보건소,황석선,053-661-3911,,선별검사+진단검사+상담+치매예방교육+기억쉼터 운영 및 인지재활프로그램+가족교실 운영+맞춤형사례관리 등,053-661-3911,대구광역시 중구 보건소,2026-06-17,3410000,대구광역시 중구
강동구치매안심센터,치매안심센터,서울특별시 강동구 성내로 45,서울특별시 강동구 성내동 541-2,37.52954199,127.1255855,2007-09,682.0,,1,7.0,6.0,작업치료사(6),강동성심병원,김여진,02-489-1130,2019-01-01,치매예방및인식개선+치매조기검진+치매및고위험인지재활프로그램+치매치료비지원+치매지역자원강화 등,02-3425-6773,강동구보건소,2026-04-21,3240000,서울특별시 강동구
은평구치매안심센터,치매안심센터,서울특별시 은평구 연서로34길 11,서울특별시 은평구 불광동 130-2,37.6215461,126.9276913,2008-12,613.61,"검진실(4), 상담실(1), 건강관리실, 스마트교실, 기억교실, 상상교실",1,9.0,4.0,"임상심리사 1, 음악치료사 1, 작업치료사2",가톨릭대학교 은평성모병원,임은예,02-388-8233,2023-01-01,"치매 조기검진 및 등록관리, 치료비 지원 및 사례관리, 인지건강프로그램 운영, 치매예방 교육 및 홍보",02-351-8801,서울특별시 은평구 보건소,2026-05-20,3110000,서울특별시 은평구
노원구치매안심센터,치매안심센터,서울특별시 노원구 수락산로 212-20 마들보건지소 4~5층,서울특별시 노원구 상계1동 1035-1 마들보건지소 4~5층,37.6714558,127.055257,2009-12,518.0,기억키움학교,1,10.0,8.0,,인제대학교 상계백병원 위탁,이순형,02-911-7778,2025-01-01,치매조기검진+치매예방 및 등록관리+치매치료비 지원+쉼터 및 일상생활훈련센터 운영+지역자원강화 사업 등,02-2116-4353,서울특별시 노원구청,2026-04-01,3100000,서울특별시 노원구
중구 치매안심센터,치매안심센터,서울특별시 중구 퇴계로 460(신당동) 유락종합사회복지관 11층,서울특별시 중구 신당동 160-2,37.565091,127.022785,2009-06,53486.0,,1,9.0,3.0,작업치료사(4),국립중앙의료원,,02-2238-3400,2009-06-01,"치매선별검사+맞춤형 치매예방 프로그램+지매환자 약제비, 검사비 지원 + 가족 지원(힐링 프로그램, 자조모임, 교육)+조호물품지원+인식개선사업 등",02-3396-6473,서울특별시 중구보건소,2026-06-05,3010000,서울특별시 중구
김천시치매안심센터,치매안심센터,경상북도 김천시 체육공원길 21,경상북도 김천시 지좌동 440-128,36.119733,128.144528,2019-12,,,0,8.0,7.0,작업치료사(3)+기타(5),김천시치매안심센터,황훈정,054-421-2960,,치매조기검진사업 및 치매치료관리비지원사업 등,054-421-2700,경상북도 김천시 보건소,2026-04-21,5060000,경상북도 김천시
무안군치매안심센터,치매안심센터,전라남도 무안군 무안읍 면성1길 128,전라남도 무안군 무안읍 성남리 813-2,34.98725207,126.4732635,2019-12,431.94,검진실(2)+상담실(1)+정밀진단실(1)+기억다방(1)+인지학습실(1)+프로그램실(2)+치매사무실(1),1,8.0,3.0,작업치료사(2)+공무원(3),무안군보건소,김성철,061-450-5075,,치매조기검진+치매상담 및 등록관리+치매예방교육+인지강화교실+쉼터+가족교실+자조모임+치매인식개선교육 등,061-450-5075,무안군보건소,2026-04-10,4950000,전라남도 무안군
진상백학동기억샘터,치매안심센터,전라남도 광양시 진상면 신황길 126,전라남도 광양시 진상면 황죽리 250-18,35.05320532,127.6882086,2020-12,796.0,검진실+프로그램실+건강관리실+상담실+사무실,0,1.0,0.0,"운전직(1), 작업치료사(1)",광양시보건소,양준석,061-797-4814,,치매조기검진+인지강화프로그램,061-797-4122,광양시보건소,2026-03-23,4840000,전라남도 광양시
광양시 치매안심센터,치매안심센터,전라남도 광양시 광양읍 호북길 13-3,전라남도 광양시 광양읍 칠성리 898-3,34.980119,127.583648,2018-12,593.0,검진실+프로그램실+까페+사무실+창고,1,6.0,2.0,"작업치료사(1),임상심리사(1)",광양시보건소,양준석,061-797-4059,,치매조기검진+치매가족자조모임+사례관리+인지강화프로그램,061-797-4122,광양시보건소,2026-03-23,4840000,전라남도 광양시
서산시치매안심센터,치매안심센터,충청남도 서산시 호수공원 6로 6,충청남도 서산시 읍내동 815-8,36.77458846,126.4445147,2021-08,350.0,주차가능+화장실 구비,0,6.0,4.0,작업치료사(3)+치위생사(1),충청남도 서산시,,041-661-6571,2018-08-01,치매조기검진+치매안심센터프로그램 운영+치매환자 맞춤형 사례관리+치매환자 조호물품 및 치매치료관리비 지원,041-661-6571,서산시보건소,2026-03-30,4530000,충청남도 서산시
연천군치매안심센터,치매안심센터,경기도 연천군 전곡읍 은대성로 95,경기도 연천군 전곡읍 은대리 577-36,38.02353445,127.0609628,2018-12,450.0,사무실(1)+프로그램실(1)+검사실(2)+상담실(1)+쉼터(1)+창고(1)+다용도실(1)+가족카페(1),0,3.0,3.0,"작업치료사(1), 행정(2)",연천군보건의료원,윤승원,031-839-4165,,치매조기검진+치매치료비지원+치매예방관리사업 등,031-839-4083,경기도 연천군 보건의료원,2026-04-24,4140000,경기도 연천군
대전서구치매안심센터,치매안심센터,"대전광역시 서구 만년로74, 서구보건소 5층",대전광역시 서구 만년동 340,36.3670884877,127.3810425,2018-04,526.415,프로그램실(2)+가족카페(1)+의사검진실(1)+신경심리검사실(1)+선별검사실(2)+대기실(1)+사무실(1)+서고(1),0,9.0,4.0,작업치료사(2)+임상심리사(2),대전서구보건소,조은숙,042-288-4470,2018-04-24,치매환자인지재활프로그램+고위험군인지강화교실+치매예방교실+찾아가는경로당치매예방교실+치매예방교육+치매파트너및플러스사업+가족교실+가족자조모임+선별검사및진단검사+치매치료관리비지원+조호물품지원+배회가능어르신인식표제공+지문등사전등록+공공후견지원사업+사례관리,042-288-4500,대전서구보건소,2026-05-17,3660000,대전광역시 서구
광주광역시 남구 치매안심센터,치매안심센터,광주광역시 남구 효우로 80,광주광역시 남구 노대동 737,35.106213,126.903801,2020-02,288.68,사무실(2)+교육실(2),0,9.0,0.0,치매예방(4)+치매관리(3),광주광역시 남구 보건소,,062-607-4361,,"치매조기검진, 치매인식개선, 치매환자보호자 등록관리",062-607-4365,광주광역시 남구청,2026-03-31,3610000,광주광역시 남구
연수구치매안심센터,치매안심센터,인천광역시 연수구 예술로20번길 15,인천광역시 연수구 선학동 100-2,37.4357471,126.699593,2018-12,836.0,사무실3+교육상담실1+검진실1+프로그램실1+카페1+주간보호센터1,0,13.0,1.0,작업치료사(2)+보건직(9)+기간제(1),인천광역시 연수구 보건소,강길원,032-749-8934,,무료치매검사+치매환자등록+치매조호물품+프로그램 운영,032-749-8934,인천광역시 연수구 보건소,2026-03-25,3520000,인천광역시 연수구
대구북구치매안심센터,치매안심센터,"대구광역시 북구 성북로49, 5층",대구광역시 북구 침산동 521-2,35.8918696,128.588898,2019-12,651.18,검진실(3)+로비+사무실+교육실(2)+기억쉼터+어르신운동실+탕비실,1,13.0,4.0,작업치료사(4)+운전원(1)+임상심리사(1)+행정(1),대구북구보건소,이영숙,053-665-3135,2017-12-01,치매조기검진+치매치료관리비지원+조호물품 제공+치매예방프로그램+쉼터운영+가족지원+치매환자 실종예방사업+맞춤형사례관리+치매인식개선사업 등,053-665-4267,대구북구보건소,2026-05-04,3450000,대구광역시 북구
장성군치매안심센터,치매안심센터,전라남도 장성군 장성읍 성산5길 17,전라남도 장성군 장성읍 성산리 178-2,35.3233003,126.808367,2020-12,495.0,사무실(1)+상담실(3)+프로그램실(1)+건강증진실(1) 등,0,10.0,1.0,작업치료사(1)+물리치료사(1),장성군보건소,박보서,061-390-7164,,"치매상담 및 등록관리사업, 치매조기검진사업, 치매검사비 자원, 치매예방관리사업, 치매환자쉼터, 배회가능 어르신 인식표 보급 사업, 치매치료관리비 지원, 조호물품 제공, 치매가족 및 보호자 지원사업, 치매인식개선사업, 치매파트너 사업, 치매안심마을 운영",061-390-7164,장성군보건소,2026-02-10,4980000,전라남도 장성군
태백시치매안심센터,치매안심센터,강원특별자치도 태백시 태백로 905,강원특별자치도 태백시 황지동 20-8,37.176676,128.9924305,2018-11,268.47,사무실+검진실+상담실+가족카페+환자쉼터+프로그램운영실등,0,5.0,3.0,행정(5),태백시보건소,안상헌,033-550-3042,2017-12-27,"환자쉼터+치매환자 가족 지지모임+치매조기검진(선별, 진단, 감별검사)+치매환자 등록관리+맞춤형사례관리+환자 지원서비스(치료관리비, 조호물품제공)+치매예방교실+이동 조기검진+치매파트너 양성 및 플러스 활동+실종예방지원서비스(인식표, 배회감지기, 지문사진등록사업) 등",033-552-4000,태백시보건소,2026-03-10,4221000,강원특별자치도 태백시
파주시치매안심센터,치매안심센터,경기도 파주시 조리읍 봉천로 68,경기도 파주시 조리읍 봉일천리 188-9,37.74507907,126.8050112,2018-07,356.42,사무실(1)+프로그램실(1)+상담실(2)+진단검사실(2)+가족카페(1),1,15.0,2.0,작업치료사(1)+간호조무사(3)+기타(3),파주시보건소,이한상,031-940-3740,,치매인식개선 및 예방+조기검진사업,031-940-3740,경기도 파주시보건소,2026-03-16,4060000,경기도 파주시
남양주풍양보건소 치매안심센터,치매안심센터,경기도 남양주시 진접읍 금강로 1509-26,경기도 남양주시 진접읍 장현리 68-39,37.726331,127.189819,2018-07,541.0,"검진실(3)+상담실(1)+가족카페(1)+프로그램실(1)+기타(4, 건강지원실, 백세건강실, 누림실, 채움실)",2,8.0,1.0,"작업치료사(3), 물리치료사(1)",남양주풍양보건소,이정미,031-590-8381,,치매조기검진+치매환자쉼터+치매가족지원+치매예방관리+치매인식개선,031-590-8381,경기도 남양주시청,2026-03-16,3990000,경기도 남양주시
남양주보건소 치매안심센터,치매안심센터,경기도 남양주시 경춘로 522,경기도 남양주시 다산동 6198,37.610537,127.171235,2024-07,446.0,상담실(1)+검진실(3)+프로그램실(2)+운동실(1)+가족카페(1)+사무공간 및 안내실(1),1,5.0,1.0,작업치료사(3)+임상심리사(1),남양주보건소,정태식,031-590-8700,,치매조기검진+치매환자쉼터+치매가족지원+치매예방관리+치매인식개선,031-590-8700,경기도 남양주시청,2026-03-16,3990000,경기도 남양주시
평택시 송탄치매안심센터,치매안심센터,경기도 평택시 서정로 295(송탄보건소옆),경기도 평택시 서정동 산12,37.065701,127.066497,2019-12,777.0,교육실(4)+사무실(2)+상담실(3)+로비,0,2.0,1.0,팀장(1)+작업치료사(3)+임상심리사(2),경기도 평택시청 송탄보건소,,031-8024-7257,,치매조기검진+치매환자 쉼터+치매예방교실+인지강화교실+치매가족교실+인식개선캠페인 등,031-8024-7257,경기도 평택시청 송탄보건소,2026-03-04,3910000,경기도 평택시
평택시치매안심센터 안중분소,치매안심센터,"경기도 평택시 안중읍 안현로서9길 24, 3층","경기도 평택시 안중읍 현화리 834-10, 3층",36.97815461,126.922304,2021-12,640.0,사무실+프로그램실+상담실+교육실+가족카페,1,2.0,0.0,작업치료사(1)+치과위생사(1),경기도 평택시청 평택보건소 안중보건지소,,031-8024-8677,,치매조기검진사업+치매환자 프로그램+치매예방교육 및 인지재활+가족프로그램 운영 등,031-8024-8677,경기도 평택시청,2026-03-04,3910000,경기도 평택시
평택시치매안심센터,치매안심센터,"경기도 평택시 중앙1로56번길 25, 2층","경기도 평택시 비전동 631, 2층",36.996253,127.089193,2019-12,657.0,사무실+프로그램실+상담실+교육실+가족카페,3,5.0,1.0,센터장(1)+팀장(1)+작업치료사(2)+임상심리사(1),경기도 평택시청 평택보건소,,031-8024-4399,,치매조기검진사업+치매환자 프로그램+치매예방교육 및 인지재활+가족프로그램 운영 등,031-8024-4399,경기도 평택시청,2026-03-04,3910000,경기도 평택시
부산광역시광역치매센터,광역치매센터,부산광역시 서구 대신공원로26,부산광역시 서구 동대신동3가 552,35.12031397,129.017942,2013-12,649.81,야외 정원 세미나실,1,0.0,6.0,작업치료사(1)+보건의료정보관리사(1),동아대학교병원,안희배,051-240-2560,2026-01-01,치매예방 챌린지 <기억 쑥쑥 뇌 튼튼 요일표> 프로그램,051-888-3402,부산광역시 건강정책과,2026-03-05,6260000,부산광역시
사천시치매안심센터,치매안심센터,경상남도 사천시 중앙로 212,경상남도 사천시 벌리동 104-1,34.94435219,128.0811474,2019-06,310.77,사무실(1)+회의실(1)+교육실(2),2,8.0,1.0,"기타 3, 작업치료사 2, 버스기사 1",사천시보건소,문지연,055-831-5860,,치매조기검진 및 등록사업+맞춤형사례관리+치매치료관리비 지원+조호물품 제공+치매환자 쉼터 및 가족카페 운영+치매예방교실 운영+치매인식개선 사업+치매어르신 실종예방 사업,055-831-2114,경상남도 사천시청,2026-02-12,5340000,경상남도 사천시
화순군치매안심센터,치매안심센터,전라남도 화순군 화순읍 충의로 40,전라남도 화순군 화순읍 삼천리 701,35.055391,126.982021,2019-12,661.24,사무실(1)+상담실(2)+프로그램실(1)+쉼터(1),3,6.0,2.0,2(작업치료사),화순군보건소,,061-379-5317,,치매선별검사+치매예방프로그램+치매인지재활프로그램+치매가족 지원+치매치료관리비 지원 등,061-379-5318,전라남도 화순군 보건소,2026-01-22,4900000,전라남도 화순군
여수시치매안심센터,치매안심센터,전라남도 여수시 신월로 794,전라남도 여수시 봉강동 323-11,34.73912089,127.7260546,2019-12,876.7,사무실(2)+검진실(4)+상담실(4)+프로그램실(2)+교육실(1)+작은도서관(1),0,18.0,5.0,작업치료사(4)+기타(2),여수시 보건소,,061-659-5440,,치매선별검사(MMSE-DS)+치매조기검진비 지원+치매치료관리비 지원+치매실종예방서비스 지원+치매파트너모집+치매예방프로그램+치매환자가족프로그램,061-659-5440,전라남도 여수시 보건소,2026-02-13,4810000,전라남도 여수시
화천군 치매안심센터,치매안심센터,강원특별자치도 화천군 화천읍 강변로 111,강원특별자치도 화천군 화천읍 중리 242-4,38.10734123,127.709121,2001-12,300.0,사무실(1)+교육실(2)+쉼터(1)+검진실(2)+카페(1),0,13.0,0.0,작업치료사(1),화천군 보건의료원,이재성,033-440-2809,,치매검사+원격진료+주간재활프로그램 운영,033-442-4424,강원특별자치도 화천군청,2026-03-13,4311000,강원특별자치도 화천군
서구치매안심센터,치매안심센터,대구광역시 서구 북비산로 71길 7,대구광역시 서구 비산동 42-107,35.88016031,128.5723999,2019-12,942.31,상담실(1)+치매가족카페(1)+교육장(1)+쉼터(1)+가족프로그램실(1)+검진실(1)+사무실(1),0,11.0,2.0,보건직(1)+작업치료사(2)+운전직(1),대구광역시 서구청,,053-663-3811,,치매조기검진+치매예방프로그램+쉼터인지재활프로그램+치매가족교실 등,053-663-3811,대구광역시 서구청,2026-02-02,3430000,대구광역시 서구
동구보건소 치매안심센터,치매안심센터,대구광역시 동구 동촌로 79,대구광역시 동구 검사동 1005-8,35.88812099,128.651234,2018-12,537.0,선별검사실+사무실+프로그램실+상담실,2,10.0,5.0,작업치료사(3),대구동구보건소,정재헌,053-662-3175,,인지재활 및 가족지지 프로그램,053-662-3175,대구광역시 동구보건소,2026-03-20,3420000,대구광역시 동구
동대문구 치매안심센터,치매안심센터,서울특별시 동대문구 홍릉로 81,서울특별시 동대문구 청량리동 203-1,37.58751921,127.0427044,2008-04,567.58,프로그램실+상담실+진료실+기억키움학교,1,5.0,5.0,미술치료사(1)+음악치료사(1)+작업치료사(3)+행정(1),경희의료원,강원섭,02-957-3062,2024-01-01,치매조기검진+치매환자 등록관리+치매환자 인지재활프로그램+가족치유 프로그램+기억키움학교 운영,02-2171-6087,서울특별시 동대문구보건소,2026-02-20,3050000,서울특별시 동대문구
당진시치매안심센터,치매안심센터,충청남도 당진시 서부로 56,충청남도 당진시 채운동 1040,36.887359689,126.6304725078,2018-12,,,1,6.0,2.0,,당진시보건소,,041-360-6269,,"치매 상담 및 등록관리 사업, 치매 조기검진 사업, 치매 예방관리 사업, 치매환자 관리 지원사업, 치매 가족 및 보호자 지원사업, 치매인식개선 및 교육홍보 사업, 치매안심마을 운영, 치매 주간보호소 운영",041-360-6269,당진시보건소,2026-01-05,5680000,충청남도 당진시
진해보건소 치매안심센터,치매안심센터,경상남도 창원시 진해구 중원동로 62,경상남도 창원시 진해구 중앙동 11-1,35.149898,128.661939,2019-12,645.0,,1,5.0,3.0,작업치료사(2)+임상심리사(1),진해보건소 서부보건지소,강명구,055-225-6692,,치매인지재활+치매가족모임+무료치매검사+치매극복의날 기념행사,055-225-6692,경상남도 창원시청,2026-01-29,5670000,경상남도 창원시
마산보건소 치매안심센터,치매안심센터,경상남도 창원시 마산합포구 월영동북로15,경상남도 창원시 마산합포구 해운동 61-1,35.1823985097,128.5628996684,2019-12,616.0,,1,10.0,2.0,작업치료사(2)+임상심리사(1),마산보건소 건강관리과,이지련,055-225-5993,,치매인지재활+치매가족모임+무료치매검사+치매극복의날 기념행사,055-225-5993,경상남도 창원시청,2026-01-29,5670000,경상남도 창원시
창원보건소 치매안심센터,치매안심센터,경상남도 창원시 성산구 마디미로73번길 10,경상남도 창원시 성산구 상남동 37-3,35.218325,128.6823024,2019-12,1048.0,,1,9.0,2.0,작업치료사(2),창원보건소 건강관리과,오재연,055-225-5794,,치매인지재활+치매가족모임+무료치매검사+치매극복의날 기념행사,055-225-5748,경상남도 창원시청,2026-01-29,5670000,경상남도 창원시
화성시치매안심센터 동부분소,치매안심센터,경기도 화성시 병점구 떡전골로 72-3,경기도 화성시 병점구 병점동 400-6,37.20527854,127.0349013,2021-01,51.0,검진실+상담실+사무실,0,4.0,0.0,위생사(1),경기도 화성시 동부보건소,심정식,031-5189-4431,,치매조기검진사업+치매인식개선 및 예방사업+가족교육사업+맞춤형 사례관리사업,031-5189-1080,경기도 화성시청 치매안심센터,2026-02-01,5530000,경기도 화성시
화성시치매안심센터 동탄분소,치매안심센터,경기도 화성시 동탄구 노작로 226-9,경기도 화성시 동탄구 석우동 60,37.20701031,127.078776121,2019-07,263.52,쉼터+검진실+상담실+사무실,1,7.0,0.0,응급구조사(1),경기도 화성시 동탄보건소,문자,031-5189-4377,,치매조기검진사업+치매인식개선 및 예방사업+가족교육사업+쉼터 운영사업+맞춤형 사례관리사업,031-5189-1080,경기도 화성시청 치매안심센터,2026-02-01,5530000,경기도 화성시
화성시치매안심센터 봉담분소,치매안심센터,경기도 화성시 효행구 봉담읍 동화새터길 109,경기도 화성시 효행구 봉담읍 동화리 614,37.21705403,126.9611275,2021-01,95.67,검진실+상담실+사무실,0,8.0,0.0,작업치료사(1),경기도 화성시 서부보건소,곽매헌,031-5189-6269,,치매조기검진사업+치매인식개선 및 예방사업+가족교육사업+맞춤형 사례관리사업,031-5189-1080,경기도 화성시청 치매안심센터,2026-02-01,5530000,경기도 화성시
화성시치매안심센터,치매안심센터,경기도 화성시 만세구 향남읍 3.1만세로 1055,경기도 화성시 만세구 향남읍 발안리 309,37.12928395,126.9046036,2018-06,88.8,검진실+상담실+사무실,0,6.0,2.0,운전원(1),경기도 화성시 서부보건소,곽매헌,031-5189-1080,,치매조기검진사업+치매인식개선 및 예방사업+가족교육사업+맞춤형 사례관리사업,031-5189-1080,경기도 화성시청 치매안심센터,2026-02-01,5530000,경기도 화성시
상주시치매안심센터,치매안심센터,경상북도 상주시 중앙로 111,경상북도 상주시 무양동 33-4,36.41690111,128.1499972,2019-06,547.98,,0,7.0,3.0,정신건강임상심리사(1)+작업치료사(2)+행정(2),상주시보건소,이건희,054-537-6514,,치매통합관리서비스,054-535-4000,상주시보건소,2026-01-20,5110000,경상북도 상주시
해남군 치매안심센터,치매안심센터,전라남도 해남군 해남읍 해남로 46,전라남도 해남군 해남읍 해리 186,34.57046051,126.6120436,2019-11,872.07,가족카페+치매환자 쉼터+프로그램실,1,9.0,2.0,작업치료사(1),해남군치매안심센터,임명란,061-531-3704,,치매조기검진+사례관리+치매환자 쉼터 및 가족지원+치매예방 등 프로그램,061-531-3704,해남군 보건소,2026-01-01,4930000,전라남도 해남군
부안군 치매안심센터,치매안심센터,전북특별자치도 부안군 부안읍 오리정로 124,전북특별자치도 부안군 부안읍 봉덕리 551-2,35.72283463,126.7355916,2019-07,214.98,사무실(1)+프로그램실(1)+쉼터(1)+검진실(2)+상담실(1)+회의실(1)+문서고(1),1,9.0,4.0,치위생사(2)+작업치료사(1)+행정(3),부안군 보건소,박찬병,063-580-3066,,무료치매검사+진단검사+치매극복의 날 기념행사+쉼터 운영 등,,전북특별자치도 부안군청,2026-01-15,4791000,전북특별자치도 부안군
임실군치매안심센터,치매안심센터,전북특별자치도 임실군 임실읍 호국로 1680,전북특별자치도 임실군 임실읍 이도리 270-8,35.6124995,127.2869773,2019-12,871.42,상담실+검진실+사무실+쉼터+가족카페+프로그램실+회의실+화장실,1,4.0,3.0,"행정(3), 작업치료사(1)",임실군치매안심센터,김대곤,063-640-3371,,치매상담 및 등록관리+치매인식개선 및 예방사업+쉼터 및 가족지원사업+치매환자 맞춤형 집중 사례관리+치매환자 배회감지기 지원사업,063-640-3100,전북특별자치도 임실군 보건의료원,2026-01-27,4761000,전북특별자치도 임실군
남원시 치매안심센터,치매안심센터,전북특별자치도 남원시 요천로 1285,전북특별자치도 남원시 조산동 455,35.39783844,127.3639897,2018-12,469.08,지상 4층+상담실(5)+검사실(2)+쉼터(1)+사무실(1)+프로그램실(1)+교육실(1),0,9.0,5.0,임상심리사(2)+작업치료사(2)+기타(7),남원시보건소,한용재,063-620-7725,,치매인식 개선 및 예방사업+치매조기검진+맞춤형 사례관리+치매치료관리비지원+조호물품 지원+치매환자 및 가족지원사업+치매 극복의 날 기념행사+치매안심마을 운영 등,063-620-7725,전북특별자치도 남원시청,2026-01-12,4701000,전북특별자치도 남원시
안산시상록수치매안심센터,치매안심센터,"경기도 안산시 상록구 차돌배기로1길 5, 상록수보건소 3층",경기도 안산시 상록구 사동 1584,37.30026357,126.8450629,2019-05,430.0,로비(1)+사무실(1)+교육상담실(1)+검진실(3)+가족카페(1)+쉼터(1),0,10.0,2.0,작업치료사(2),안산시 상록수보건소,이미경,031-481-5848,,조기검진+약제비지원+사례관리+예방교육+쉼터및가족카페운영+치매파트너양성,1666-1234,경기도 안산시 상록수보건소,2026-02-24,3930000,경기도 안산시
안산시단원치매안심센터,치매안심센터,"경기도 안산시 단원구 화랑로 250, 단원보건소 3층",경기도 안산시 단원구 초지동 666-8,37.32106713,126.8152625,2018-03,558.41,로비(1)+사무실(1)+상담실(1)+검진실(2)+가족카페(1)+쉼터(3),0,7.0,0.0,작업치료사(3),안산시 단원보건소,정영란,031-481-6541,,조기검진+약제비지원+사례관리+예방교육+쉼터및가족카페운영+치매파트너양성,1666-1234,경기도 안산시 단원보건소,2026-02-24,3930000,경기도 안산시
광산구치매안심센터,치매안심센터,광주광역시 광산구 용아로379번길 77(산정동,광주광역시 광산구 산정동 1033,35.17615122,126.8002346,2019-12,520.44,사무실+프로그램실+상담실,0,10.0,2.0,,광주광역시 광산구보건소,김옥현,062-960-6930,,치매조기검진+인지프로그램+가족지원사업+사례관리+조호물품+인식개선 등,062-960-6930,광주광역시 광산구보건소,2026-02-04,3630000,광주광역시 광산구
부산광역시남구치매안심센터,치매안심센터,부산광역시 남구 못골로 23,부산광역시 남구 대연동 1268-3,35.13606784,129.0849507,2018-12,364.55,사무실(1)+검진실(3)+상담실(1)+프로그램실(2),1,10.0,3.0,작업치료사(2)+임상심리사(1)+기타(1),남구보건소치매안심센터,센터장 윤민우,051-607-3781,2018-04-27,치매조기검진+인지재활프로그램+고위험군 인지강화교실+치매예방교실 등,051-607-3781,부산광역시남구치매안심센터,2026-02-11,3310000,부산광역시 남구
강서구치매안심센터,치매안심센터,"서울특별시 강서구 화곡로 371, 경향교회선교관 3층",,37.556963,126.8522421,2009-12,630.0,,1,10.0,3.0,운동처방사(1)+작업치료사(9)+임상심리사(1),이화여자대학교 의과대학부속 서울병원,허담,02-3663-0943,2026-01-01,무료치매검진 및 진단+치매예방교육+치매예방인지재활프로그램+치매가족지지 프로그램+실종예방프로그램+조호물품지원 등,02-2600-5877,서울특별시 강서구청,2026-02-06,3150000,서울특별시 강서구
고성군치매안심센터,치매안심센터,경상남도 고성군 고성읍 중앙로 35,경상남도 고성군 고성읍 성내리 27,34.97451724,128.3244477,2018-12,412.0,,0,9.0,3.0,작업치료사(1),경상남도 고성군 보건소,이상근,055-670-4851,,치매조기검진+치매치료관리비+검진비 지원+치매환자 조호물품 제공+치매환자 실종예방 사업+치매환자 쉼터+예방교실 운영+치매환자 가족지원사업+인식개선 교육·홍보,055-670-4851,경상남도 고성군,2026-01-30,5420000,경상남도 고성군
양산시치매안심센터,치매안심센터,경상남도 양산시 중앙로 7-32,경상남도 양산시 다방동 506-3,35.33215753,129.0379947,2018-12,1000.5,,0,12.0,3.0,작업치료사(2)+기타(2),양산시치매안심센터,김정미,055-392-5175,,치매조기검진 및 예방 사업+치매치료비 지원+치매 환자 및 가족 지원 사업,055-392-5175,양산시보건소,2026-01-20,5380000,경상남도 양산시
거제시 치매안심센터,치매안심센터,경상남도 거제시 거제중앙로13길 25,경상남도 거제시 고현동 159-11,34.88218472,128.6236992,2016-12,959.22,검진실(3)+상담실(1)+프로그램실(1)+쉼터(1)+카페(1)+사무실(3)+대회의실(1)+소회의실(1)+화장실 각층(3),0,14.0,2.0,작업치료사(1)+기타(2),거제시보건소,김영실,055-639-6226,,치매환자 등록 및 관리+치매조기검진+치매예방교육 및 인식개선+치매가족교육 및 자조모임+치매환자 쉼터프로그램운영,055-639-6200,경상남도 거제시 보건소,2026-01-16,5370000,경상남도 거제시
김해시서부보건소분소,치매안심센터,경상남도 김해시 능동로 149,경상남도 김해시 부곡동 1157-8,35.202341,128.8072142,2023-01,3528.47,사무실+상담실,0,2.0,1.0,,경상남도 김해시 김해시서부보건소,,055-330-8391,,치매상담 및 등록,055-330-8391,경상남도 김해시청,2026-01-26,5350000,경상남도 김해시
치매안심센터 주촌분소,치매안심센터,경상남도 김해시 주촌면 주선로 29-1,경상남도 김해시 주촌면 선지리 635-1,35.234777,128.845757,2018-03,1982.94,사무실+상담실+쉼터,0,5.0,2.0,임상심리사(1)+기타행정(1),경상남도 김해시 김해시보건소,,055-320-5971,,치매조기검진(선별+진단검사),055-320-5971,경상남도 김해시청,2026-01-26,5350000,경상남도 김해시
김해시치매안심센터,치매안심센터,경상남도 김해시 분성로727번길 8-35,경상남도 김해시 지내동 327-2,35.230025,128.922444,2020-09,585.49,사무실+상담실+쉼터,0,10.0,1.0,작업치료사(2)+기타행정(1),경상남도 김해시 김해시보건소,,055-320-5961,,인지재활프로그램,055-320-5961,경상남도 김해시청,2026-01-26,5350000,경상남도 김해시
영양군치매안심센터,치매안심센터,"경상북도 영양군 영양읍 동서대로 82, 3층 치매안심센터",경상북도 영양군 영양읍 동부리 164-1,36.66194441,129.1180656,2019-10,372.03,사무실(1)+프로그램실(1)+검진실(1)+진단실(1)+화장실(3)+상담실(1)+가족카페(1)+창고(1),0,6.0,3.0,"작업치료사(1), 치위생사(1), 임상병리사(1)",영양군보건소,장여진,054-680-5126,2019-10-14,치매조기검진 및 등록사업+사례관리+치매치료관리비 지원+조호물품제공+치매환자쉼터 및 가족카페 운영+치매인식개선 및 교육홍보+치매어르신 실종예방 사업 등,054-680-5126,영양군보건소,2025-12-22,5170000,경상북도 영양군
보령시치매안심센터,치매안심센터,충청남도 보령시 대천로 119,충청남도 보령시 죽정동 703-1,36.35633335,126.6045349,2018-12,490.19,,0,13.0,1.0,작업치료사(2)+임상심리사(1),충청남도 보령시,전경희,041-930-6871,,건강체조+공예+웃음치료+노래교실+요리 등,041-930-6871,충청남도 보령시청,2026-01-12,4510000,충청남도 보령시
괴산군치매안심센터,치매안심센터,충청북도 괴산군 괴산읍 동진천길 43,충청북도 괴산군 괴산읍 동부리 641,36.80799723,127.7966873,2001-12,,,0,6.0,1.0,,괴산군치매안심센터,김미경,043-830-2392,,치매선별검사+치매진단검사+가족교실+인지교실 등,043-830-2392,충청북도 괴산군청,2026-01-07,4460000,충청북도 괴산군
양평군치매안심센터,치매안심센터,경기도 양평군 양평읍 중앙로111번길 34-21,경기도 양평군 양평읍 공흥리 310-9,37.4966134,127.5051941,2019-04,998.7,,0,6.0,6.0,행정(3)+작업치료사(5),양평군보건소,배명석,031-771-5773,2025-01-01,치매조기검진+치매환자지원사업 등,031-771-5773,양평군보건소,2026-01-07,4170000,경기도 양평군
남부치매안심센터,치매안심센터,경기도 이천시 장호원읍 서동대로8809번길 30-15,경기도 이천시 장호원읍 장호원리 371-1,37.11672581,127.6148957,2019-12,375.41,사무실(1)+상담실(1)+검진실(1)+진료실(1)+프로그램실(1)+대기실(1)+휴게실(1),0,1.0,1.0,작업치료사(1),이천시 보건소,한미연,031-6190-7227,,치매조기검진사업+치매치료관리비지원사업+치매쉼터프로그램운영+치매환자가족(헤아림) 교육 및 자조모임운영+치매예방 홍보 교육 및 캠페인+치매파트너 모집+치매관련 정보제공+치매환자 배회인식표 제공+자원연계,031-6190-7227,이천시 보건소,2026-01-04,4070000,경기도 이천시
이천시치매안심센터,치매안심센터,경기도 이천시 부악로36 이천시보건소 1층,경기도 이천시 중리동 491 이천시보건소 1층,37.273877,127.433285,2018-11,,사무실(1)+상담실(2)+검진실(1)+진료실(1)+프로그램실(2)+대기실(1)+휴게실(1),8,2.0,3.0,작업치료사(2)+치과위생사(1),이천시 보건소,한미연,031-6190-7211,,치매조기검진사업+치매치료관리비지원사업+치매쉼터프로그램운영+치매환자가족(헤아림) 교육 및 자조모임운영+치매예방 홍보 교육 및 캠페인+치매파트너 모집+치매관련 정보제공+치매환자 배회인식표 제공+자원연계,031-6190-7211,이천시 보건소,2026-01-04,4070000,경기도 이천시
동두천시치매안심센터,치매안심센터,경기도 동두천시 거북마루로 49,경기도 동두천시 생연동 714-10,37.89626429,127.0516304,2019-12,710.0,사무실(1)+교육실(1)+치매환자쉼터(1)+상담실(2)+가족카페(1),0,4.0,3.0,행정직(1)+작업치료사(1)+보건직(1),동두천시 보건소,전명옥,031-860-3395,,"치매조기검사(선별검사,진단검사,감별검사)+치매예방교육+인지강화프로그램+치매환자및가족지원프로그램 등",031-860-3395,경기도 동두천시청 보건소,2026-01-09,3920000,경기도 동두천시
울산중구치매안심센터,치매안심센터,울산광역시 중구 외솔큰길 225,울산광역시 중구 남외동 603-2,35.5694483,129.3504562,2020-12,259.9,사무실(1)+상담실(2)+교육실(1)+프로그램실(1)+가족카페(1)+검진실(1),0,9.0,1.0,"작업치료사(2),보건의료정보관리사(1),치과위생사(1),위생사(1)",울산광역시 중구보건소,이현주,052-290-4290,,무료치매선별검사+치매예방 인지건강프로그램+치매예방 가족교육,052-290-4367,울산광역시 중구 보건소,2026-01-20,3690000,울산광역시 중구
부산광역시영도구치매안심센터,치매안심센터,부산광역시 영도구 태종로 423,부산광역시 영도구 청학동 48-3,35.0912179,129.067935,2018-12,375.42,사무실(1)+상담실(2)+검진실(1)+프로그램실(2)+카페(1),3,8.0,3.0,임상심리사(1)+작업치료사(1),영도구보건소,박성률,051-419-4935,,치매상담 및 정보 제공+치매조기검진+치매가구 맞춤형 사례관리+치매예방 및 인지강화교실 운영+치매환자 단기보호쉼터 운영+치매가족교실 및 힐링까페 운영+치매치료관리비 지원+치매환자 조호물품 지원+치매인식개선사업 운영 등,,부산광역시 영도구청,2025-12-11,3280000,부산광역시 영도구
중구치매안심센터,치매안심센터,"부산광역시 중구 흑교로 48, 중구복합건강센터 2층",부산광역시 중구 보수동1가 95-3,35.10376894,129.0253557,2019-03,200.96,사무실+상담실+검진실+프로그램실,1,5.0,3.0,작업치료사(4)+임상심리사(1),부산광역시 중구보건소,송교필,051-600-4688,,치매초기상담+조기검진+1:1 사례관리+치매치료비지원 등,051-600-4688,부산광역시 중구보건소,2026-01-14,3250000,부산광역시 중구
강남구치매안심센터,치매안심센터,서울특별시 강남구 선릉로108길 27,서울특별시 강남구 삼성동 113-26,37.5103126,127.0463796,2009-12,903.24,사무실(2)+강당(1)+건강홀(1)+진료실(1)+인지검사실(1)+프로그램실(4)+서고(1)+창고(2)+세탁실(1)+샤워룸(1)+직원휴게실(1)+화장실(5),2,6.0,4.0,,삼성서울병원,서상원,02-568-4203,2010-01-01,치매선별검사+인지건강증진프로그램운영 등,02-3423-7123,서울특별시청+강남구보건소,2026-01-27,3220000,서울특별시 강남구
음성군치매안심센터,치매안심센터,충청북도 음성군 음성읍 중앙로 49,충청북도 음성군 음성읍 읍내리 406-4,36.928899,127.688876,2024-12,495.0,사무실(1)+교육실(2)+화장실(2)+진료실(1)+상담실(1)+검진실(1)+카페(1)+비품실(1)+통신실(1),1,3.0,2.0,작업치료사(1)+임상심리사(1)+기타(1),음성군보건소,구미숙,043-871-2971,,치매인식개선사업+치매조기검진+치매극복의 날 기념행사+치매예방 및 관리 프로그램 운영 등,043-871-2971,충청북도 음성군청,2025-12-26,4470000,충청북도 음성군
가평군치매안심센터,치매안심센터,경기도 가평군 가평읍 가화로 155-18,경기도 가평군 가평읍 읍내리 624-1,37.83344764,127.5106291,2020-12,368.0,가족카페+교육실+기억키움터+상담실+사무실,1,5.0,1.0,작업치료사(2),가평군보건소,장우진,031-580-2849,,맞춤형사례관리+인지강화 및 치매예방교실+단기쉼터운영+치매파트너 및 파트너플러스 양성+치매가족지지프로그램+인식강화 등,031-580-2849,경기도 가평군보건소,2025-12-24,4160000,경기도 가평군
제천시치매안심센터,치매안심센터,충청북도 제천시 의림대로 242,충청북도 제천시 청전동 110,37.1493417,128.2160865,2025-01,378.0,사무실(1)+교육실(1)+가족카페(1)+상담실(1)+검진실(3),0,9.0,1.0,작업치료사(1)+임상심리사(1)+보건의료정보관리사(1),제천시보건소,안순덕,043-641-3058,,"치매조기검진, 치매예방 및 인지강화 프로그램, 치매환자지원(쉼터, 치료비, 조호물품 등), 치매인식개선홍보 및 치매파트너 양성 등",043-646-2720,제천시보건소,2025-12-18,4400000,충청북도 제천시
남부치매안심센터,치매안심센터,경기도 여주시 점동면 청안2길 20,,37.20378959,127.6599867,2025-08,83.3,사무실+프로그램실+상담실+진단검사실,0,0.0,1.0,작업치료사(1),경기도 여주시보건소,,031-887-3493,,예방프로그램+쉼터+치매인식개선사업+조기검진사업,031-887-3493,경기도 여주시청,2025-12-22,5700000,경기도 여주시
북부치매안심센터,치매안심센터,경기도 여주시 대신면 풍양1길 16,,37.37205549,127.5852432,2025-07,180.0,사무실+프로그램실+상담실+진단검사실,0,1.0,0.0,작업치료사(1),경기도 여주시보건소,,031-887-3497,,예방프로그램+쉼터+치매인식개선사업+조기검진사업,031-887-3497,경기도 여주시청,2025-12-22,5700000,경기도 여주시
여주시치매안심센터,치매안심센터,경기도 여주시 여흥로 160번길 12,,37.29477832,127.6399084,2025-01,517.0,사무실+프로그램실+상담실+진단검사실+가족카페,1,6.0,1.0,작업치료사(1),경기도 여주시보건소,,031-887-3685,,예방프로그램+쉼터+치매인식개선사업+조기검진사업,031-887-3685,경기도 여주시청,2025-12-22,5700000,경기도 여주시
밀양시치매안심센터,치매안심센터,경상남도 밀양시 삼문중앙로 41,경상남도 밀양시 삼문동 159-1,35.48567011,128.7560608,2018-12,344.75,쉼터+가족카페+검진실 등,1,13.0,1.0,작업치료사 2명+임상심리사 1명,밀양시보건소,천재경,055-359-7086,,"맞춤형 인지재활 프로그램, 치매환자가족교실, 치매파트너 등",055-359-7020,밀양시보건소,2025-12-22,5360000,경상남도 밀양시
영광군치매안심센터,치매안심센터,전라남도 영광군 영광읍 신남로4길 17,전라남도 영광군 영광읍 남천리 326,35.274681,126.504163,2022-03,298.0,안내실(1)+상담실(2)+쉼터(1)+가족모임터(1)+작업치료실(1)+회의실(1)+사무실(1)+진료실(2)+교육실(1)+프로그램실(1),1,5.0,3.0,작업치료사(2)+치위생사(1),영광군보건소,지경현,061-350-4806,,치매 조기검진+진단검사+치료관리비 및 검사비 지원+치매예방교실+인지강화교실+쉼터+치매환자가족모임 운영+조호물품 지원+사례관리 등,061-350-4817,전라남도 영광군청,2024-07-25,4970000,전라남도 영광군
봉화군치매안심센터,치매안심센터,경상북도 봉화군 봉화읍 봉화로 1203,경상북도 봉화군 봉화읍 내성리 285,36.89071878,128.7418543,2018-12,,치매환자쉼터(1)+보건지소치매환자쉼터(3)+치매가족카페(1)+프로그램실(1),2,4.0,2.0,"작업치료사(3), 기타(1)",봉화군 보건소,배재정,054-679-6791,,치매상담 및 등록+치매 조기검진+치매환자 조호물품 지원+치매환자 배회감지기 지원+치매치료관리비 지원+치매환자 맞춤형 사례관리+치매환자쉼터(봉화+춘양+재산+명호) 운영+치매보듬마을 조성사업+치매인식개선 교육 및 홍보+치매선도학교 및 서포터즈 운영+치매보듬쉼터 운영+치매예방 인지강화프로그램 운영+치매안심병원 성과기반 인센티브 제공 시범사업 운영+산림농업 치유프로그램 연계사업 운영,,경상북도 봉화군청,2024-09-26,5240000,경상북도 봉화군
나주시 치매안심센터,치매안심센터,전라남도 나주시 풍물시장2길 57-32,전라남도 나주시 이창동 740-1,34.99522825,126.7082249,2018-11,827.0,사무실+진료실+상담실+프로그램실+쉼터+가족카페+기타(치매안심센터분소),1,10.0,2.0,작업치료사(4),나주시,강동렬,061-339-4772,,치매조기검진+치매 예방 프로그램+인지강화 프로그램+치매환자 쉼터 운영+치매환자 가족 교실 운영,061-339-4764,전라남도 나주시청,2024-08-19,4830000,전라남도 나주시
칠곡군 치매안심센터,치매안심센터,경상북도 칠곡군 왜관읍 관문로1길 30,,35.99070797,128.4186406,2018-10,382.11,사무실(1)+프로그램실(3)+단기쉼터(2)+가족카페(1),2,8.0,5.0,3의료기술(1) 간호(1) 보건(1),칠곡군보건소,권정희,054-973-4000,2018-10-25,"치매검진, 맞춤형 사례관리, 예방 및 인지강화 프로그램, 가족지원 사업, 홍보 및 교육 등",054-973-3321,경상북도 칠곡군청,2024-08-08,5220000,경상북도 칠곡군
양구군치매안심센터,치매안심센터,강원특별자치도 양구군 양구읍 관공서로 42,강원특별자치도 양구군 양구읍 하리 34-5,38.10994629,127.9892065,2019-12,375.66,창고(1개29.7㎡),0,7.0,1.0,작업치료사(1)+행정인력(2)+육아휴직대체(1),강원특별자치도 양구군 치매안심센터,주혜란,033-480-2823,,치매환자 쉼터+치매 검진+사례관리,033-481-2400,강원특별자치도 양구군보건소,2024-09-06,4321000,강원특별자치도 양구군
시흥시 치매안심센터(북부),치매안심센터,경기도 시흥시 호현로 55,경기도 시흥시 대야동 484-3,37.445591,126.7852982158,2019-12,227.0,사무실(1)+회의실(1)+ 검진실(2)+환자쉼터(1)+가족카페(1),0,8.0,1.0,작업치료사(2)+송영및쉼터보조인력(1),시흥시보건소,이형정,031-310-5857,,치매조기검진+치매의료비 및 검진비 지원+치매예방교육+치매환자쉼터 및 가족지원사업 등,031-310-6067,경기도 시흥시청,2025-11-04,4010000,경기도 시흥시
시흥시 치매안심센터(남부),치매안심센터,경기도 시흥시 정왕대로233번길 19,경기도 시흥시 정왕동 1799-5,37.3467224002,126.7401533604,2018-12,449.0,사무실(1)+회의실(1)+교육실(2)+검진및상담실(4)+환자쉼터(1)+가족카페(1),0,3.0,1.0,작업치료사(2)+치위생사(1)+송영및쉼터보조인력(1),시흥시보건소,이형정,031-310-5930,,치매조기검진+치매의료비 및 검진비 지원+치매예방교육+치매환자쉼터 및 가족지원사업 등,031-310-5942,경기도 시흥시청,2025-11-04,4010000,경기도 시흥시
시흥시 치매안심센터(중부),치매안심센터,경기도 시흥시 목감우회로 23,경기도 시흥시 조남동 697,37.381696,126.858765,2020-12,378.0,사무실(1)+회의실(1)+교육실(1)+ 검진및상담실(1)+환자쉼터(1)+가족카페(1),0,4.0,1.0,작업치료사(2)+송영및쉼터보조인력(1),시흥시보건소,이형정,031-310-6825,,치매조기검진+치매의료비 및 검진비 지원+치매예방교육+치매환자쉼터 및 가족지원사업 등,031-310-6823,경기도 시흥시청,2025-11-04,4010000,경기도 시흥시
금산군치매안심센터,치매안심센터,충청남도 금산군 금산읍 비범1길 5,충청남도 금산군 금산읍 중도리 214-3,36.1095223,127.4934473,2018-12,426.61,사무실(1)+쉼터(1)+프로그램실(4),0,8.0,5.0,기타(3),금산군보건소,채기주,041-750-4460,,치매상담+등록관리+조기검진+인지재활프로그램+치매치료관리비지원+치매주간보호센터 운영 등,041-635-4339,충청남도청,2025-11-04,4550000,충청남도 금산군
신안군치매안심센터,치매안심센터,"전라남도 신안군 압해읍 천사로 1004, 보건소 1층",전라남도 신안군 압해읍 신장리 462-10,34.83360218,126.3514253,2022-12,191.3,,0,4.0,1.0,0,전라남도 신안군,박용재,061-243-8081,2019-07-16,치매조기검진+사례관리,061-243-8081,전라남도 신안군,2025-11-05,6460000,전라남도
진도군치매안심센터,치매안심센터,전라남도 진도군 진도읍 남동1길 40-9,전라남도 진도군 진도읍 남동리 776-26,34.48037351,126.2629165,2022-12,459.0,,0,7.0,0.0,작업치료사(1)+행정(3),전라남도 진도군,조기주,061-540-6964,2018-12-18,등록관리+예방교실 운영,061-540-6964,전라남도 진도군,2025-11-05,6460000,전라남도
완도군치매안심센터,치매안심센터,전라남도 완도군 완도읍 농공단지길 34,전라남도 완도군 완도읍 죽청리 483-8,34.33582329,126.7313246,2022-12,308.7,,0,5.0,3.0,작업치료사(2)+행정(1)+기타(1),전라남도 완도군,한광일,061-550-5810,2019-05-31,치매조기검진+사례관리+치료비 지원,061-550-5810,전라남도 완도군,2025-11-05,6460000,전라남도
장성군치매안심센터,치매안심센터,전라남도 장성군 장성읍 성산5길 17,전라남도 장성군 장성읍 성산리 178-2,35.3233003,126.808367,2022-12,495.0,,0,6.0,3.0,작업치료사(1)+임상심리사(1),전라남도 장성군,박보서,061-390-7161,2020-01-29,치매조기검진+상담 및 등록관리+프로그램운영,061-390-7161,전라남도 장성군,2025-11-05,6460000,전라남도
영광군치매안심센터,치매안심센터,전라남도 영광군 영광읍 신남로 4길 17,전라남도 영광군 영광읍 남천리 326-5,35.27468261,126.5041643,2022-12,289.0,,0,7.0,3.0,작업치료사(2)+기타(1),전라남도 영광군,지경현,061-350-4806,2019-03-13,등록관리+프로그램 운영,061-350-4806,전라남도 영광군,2025-11-05,6460000,전라남도
함평군치매안심센터,치매안심센터,전라남도 함평군 함평읍 중앙길 54-8,전라남도 함평군 함평읍 기각리 253,35.06215283,126.524249,2022-12,383.0,,0,8.0,1.0,행정(1),전라남도 함평군,심화섭,061-320-2390,2018-10-05,치매조기검진+쉼터운영,061-320-2390,전라남도 함평군,2025-11-05,6460000,전라남도
무안군치매안심센터,치매안심센터,전라남도 무안군 무안읍 불무로 38-9,전라남도 무안군 무안읍 교촌리 127-10,34.98830267,126.4735676,2022-12,310.4,,0,7.0,2.0,작업치료사(1)+기타(4),전라남도 무안군,김성철,061-450-5075,2018-12-26,치매조기검진+상담 및 등록관리+프로그램운영,061-450-5075,전라남도 무안군,2025-11-05,6460000,전라남도
영암군치매안심센터,치매안심센터,전라남도 영암군 영암읍 오리정길 39,전라남도 영암군 영암읍 춘양리 525,34.79533941,126.7033414,2022-12,390.0,,0,6.0,2.0,작업치료사(1)+기타(2),전라남도 영암군,최문형,061-470-6030,2019-03-26,쉼터+안심마을,061-470-6030,전라남도 영암군,2025-11-05,6460000,전라남도
해남군치매안심센터,치매안심센터,전라남도 해남군 해남읍 해남로 46,전라남도 해남군 해남읍 해리 186,34.57046123,126.6120439,2022-12,872.1,,0,8.0,2.0,작업치료사(1)+기타(1),전라남도 해남군,소은영,061-531-3703,2019-12-03,치매환자쉼터+가족교실+치매예방 및 인지강화교실,061-531-3703,전라남도 해남군,2025-11-05,6460000,전라남도
강진군치매안심센터,치매안심센터,전라남도 강진군 강진읍 목리길 11,전라남도 강진군 강진읍 동성리 66-3,34.63833623,126.77571,2022-12,399.0,,0,6.0,2.0,작업치료사(2)+기타(1),전라남도 강진군,서현미,061-430-5294,2019-09-20,등록관리+치매조기검진+프로그램 운영,061-430-5294,전라남도 강진군,2025-11-05,6460000,전라남도
장흥군치매안심센터,치매안심센터,전라남도 장흥군 장흥읍 동교1길 13,전라남도 장흥군 장흥읍 건산리 752-1,34.67707296,126.9070034,2022-12,335.0,,0,4.0,2.0,작업치료사(1)+기타(1),전라남도 장흥군,박옥란,061-860-6498,2018-11-15,등록관리+조기검진+프로그램 운영,061-860-6498,전라남도 장흥군,2025-11-05,6460000,전라남도
화순군치매안심센터,치매안심센터,전라남도 화순군 화순읍 충의로 40,전라남도 화순군 화순읍 삼천리 701,35.05539364,126.9820968,2022-12,338.6,,0,6.0,4.0,작업치료사(2)+임상심리사(1),전라남도 화순군,박미라,061-379-5317,2019-03-21,치매조기검진+프로그램 운영,061-379-5317,전라남도 화순군,2025-11-05,6460000,전라남도
보성군치매안심센터,치매안심센터,전라남도 보성군 보성읍 갱맹골길 206,전라남도 보성군 보성읍 주봉리 529,34.76645647,127.0712437,2022-12,344.0,,0,8.0,0.0,작업치료사(2)+기타(1),전라남도 보성군,김학성,061-850-8695,2018-11-22,조기검진+치매등록+쉼터+인지강화교실,061-850-8695,전라남도 보성군,2025-11-05,6460000,전라남도
고흥군치매안심센터,치매안심센터,전라남도 고흥군 고흥읍 등암3길 5,전라남도 고흥군 고흥읍 등암리 1258-21,34.5919855,127.2692469,2022-12,466.0,,0,4.0,2.0,작업치료사(3)+행정(4),전라남도 고흥군,박준희,061-830-6969,2019-06-14,조기검진+치매관리,061-830-6969,전라남도 고흥군,2025-11-05,6460000,전라남도
구례군치매안심센터,치매안심센터,전라남도 구례군 구례읍 동편제길 30,전라남도 구례군 구례읍 백련리 576,35.21607284,127.4617801,2022-12,437.0,,0,5.0,3.0,작업치료사(1),전라남도 구례군,김윤길,061-780-2026,2017-11-01,치매쉼터프로그램+치매예방교실+인지강화 교실,061-780-2026,전라남도 구례군,2025-11-05,6460000,전라남도
곡성군치매안심센터,치매안심센터,전라남도 곡성군 곡성읍 곡성로 854,전라남도 곡성군 곡성읍 읍내리 220,35.27886716,127.2969046,2022-12,342.7,,0,6.0,0.0,행정(1),전라남도 곡성군,임인동,061-360-8980,2019-07-10,등록관라+쉼터운영+예방,061-360-8980,전라남도 곡성군,2025-11-05,6460000,전라남도
담양군치매안심센터,치매안심센터,전라남도 담양군 담양읍 완동길 10-5,전라남도 담양군 담양읍 만성리 116-1,35.32470177,126.9807438,2022-12,613.8,,0,7.0,0.0,작업치료사(3)+행정(3),전라남도 담양군,김동진,061-380-2971,2019-01-29,치매환자 쉼터 운영+조기검진,061-380-2971,전라남도 담양군,2025-11-05,6460000,전라남도
광양시치매안심센터,치매안심센터,전라남도 광양시 광양읍 호북길 13-3,전라남도 광양시 광양읍 칠성리 898-3,34.98010194,127.58361,2022-12,593.0,,0,8.0,1.0,작업치료사(2)+행정(1)+기타(3),전라남도 광양시,김복덕,061-797-4059,2018-10-11,치매조기검진+상담등록관리 운영,061-797-4059,전라남도 광양시,2025-11-05,6460000,전라남도
나주시치매안심센터,치매안심센터,전라남도 나주시 풍물시장2길 57-32,전라남도 나주시 이창동 740-1,34.99522645,126.708224,2022-12,827.0,,0,10.0,2.0,작업치료사(4),전라남도 나주시,강동렬,061-339-4771,2018-11-22,치매조기검진+프로그램 운영,061-339-4771,전라남도 나주시,2025-11-05,6460000,전라남도
순천시치매안심센터,치매안심센터,전라남도 순천시 중앙로 232,전라남도 순천시 석현동 35-6,34.96667705,127.4860726,2022-12,738.8,,0,10.0,2.0,작업치료사(2)+임상심리사(1)+행정(2)+기타(1),전라남도 순천시,채연석,061-749-8888,2019-09-17,치매선별검사+인지재활프로그램,061-749-8888,전라남도 순천시,2025-11-05,6460000,전라남도
여수시치매안심센터,치매안심센터,전라남도 여수시 신월로 794,전라남도 여수시 봉강동 323-11,34.73915914,127.7260493,2022-12,876.7,,0,14.0,4.0,작업치료사(2)+기타(3),전라남도 여수시,신준섭,061-659-5440,2019-06-12,등록관리+프로그램 운영,061-659-5440,전라남도 여수시,2025-11-05,6460000,전라남도
광진구치매안심센터,치매안심센터,서울특별시 광진구 긴고랑로110+중곡종합건강센터 3층,서울특별시 광진구 중곡동 125-11+중곡종합건강센터 3층,37.55933917,127.0870892,2023-01,328.43,사무실(1)+상담실(1)+검진실(2)+센터장실(1)+교육실(1)+인지프로그램실(1)+휴게실(2)+다용도실(1),1,9.0,4.0,작업치료사(4)+행정직(1),건국대학교병원,문연실,02-450-1381,2009-02-01,치매조기검진+맞춤형 인지프로그램 운영+사례관리+조호물품 지원+치매치료비지원+치매공공후견사업+기억키움쉼터 및 가족카페 운영,02-450-1966,서울특별시 광진구 보건소,2025-11-03,3040000,서울특별시 광진구
부산광역시 동구보건소 치매안심센터,치매안심센터,부산광역시 동구 구청로 14,부산광역시 동구 수정동 819-54,35.12832585,129.0450622,2018-03,387.92,사무실+검진실+프로그램실+가족카페+다목적홀+옥상정원 등,0,6.0,3.0,작업치료사2+임상심리사1,부산광역시 동구보건소,이정원,051-440-6443,,치매조기검진+쉼터+인지재활프로그램+가족지원사업 등,051-440-6443,부산광역시 동구보건소,2025-11-05,3270000,부산광역시 동구
오산시치매안심센터,치매안심센터,경기도 오산시 경기대로 307,경기도 오산시 오산동 850-1,37.15233882,127.0731395,2017-01,233.0,사무실(2)+상담실(1)+진단검사실(1)+쉼터(1)+프로그램실(1)+가족카페(1),1,8.0,2.0,작업치료사(3)+행정(3),오산시보건소,김태숙,031-8036-6633,,치매환자 등록관리+치매조기검사+치매극복의날 기념행사+치매예방프로그램+인지재활프로그램+가족헤아림교실+치매안심마을운영 등,031-8036-8036,경기도 오산시청,2025-11-05,4000000,경기도 오산시
의왕시치매안심센터,치매안심센터,경기도 의왕시 오봉로 34,경기도 의왕시 고천동 108,37.3437876927,126.9719938053,2019-03,287.82,쉼터(1)+가족카페(1)+검사실(2)+진료실(1)+사무실(2),1,6.0,1.0,작업치료사(4),의왕시보건소,임인동,031-345-3851,,치매조기검진사업+쉼터 운영+가족교실+인지강화교육+치매 치료비지원+치매인식개선+치매안심마을 운영+치매예방교육+조호물품지원+실종예방GPS 및 가스안심콕 제공+맞춤형 사례관리,031-345-3851,경기도 의왕시청,2025-11-06,4030000,경기도 의왕시
함안군 치매안심센터,치매안심센터,경상남도 함안군 군북면 함마대로 768-3,경상남도 함안군 군북면 중암리 106,35.2639061,128.3428857,2018-05,515.13,사무실(1)+쉼터(1)+상담실(1)+검진실(1)+가족카페(1),1,11.0,1.0,작업치료사(2)+간호조무사(2)+임상심리사(1)+치위생사(1)+물리치료사(1),경상남도 함안군,박수귀,055-580-3240,,치매예방교육+치매조기검진사업+치매환자 등록관리+치매치료관리비지원+인지재활프로그램및치매쉼터운영+치매환자가족지원,055-580-3242,함안군보건소,2025-11-10,5400000,경상남도 함안군
옥천군치매안심센터,치매안심센터,충청북도 옥천군 옥천읍 가화4길 18,충청북도 옥천군 옥천읍 금구리 229-9,36.30519083,127.5614242,2019-12,610.0,사무실(2)+건강교실(1)+검사실(2)+가족카페(1)+쉼터(1)+프로그램실(1),0,5.0,0.0,보건주무관(5),옥천군치매안심센터,박성희,043-730-2158,,치매조기검진+치매환자 및 가족지원사업+치매인식개선 홍보 및 교육,043-730-2114,충청북도 옥천군청,2025-09-30,4430000,충청북도 옥천군
증평군치매안신셈터,치매안심센터,충청북도 증평군 증평읍 보건복지로 64-1,충청북도 증평군 증평읍 내성리 57-2,36.77424904,127.5867247,2018-08,117.7,,0,3.0,1.0,임상심리사(1)+작업치료사(1)+기타(4),충청북도 증평군 보건소,조미정,043-835-4782,,치매 기억력 검진+치매환자 인지재활 프로그램+치매환자 가족교실+자조모임+치매 예방교육+치매안심마을 조성,043-835-4783,충청북도 증평군 보건소,2025-11-04,5570000,충청북도 증평군
충청북도 청주시 청원구 치매안심센터,치매안심센터,충청북도 청주시 청원구 오창읍 과학산업3로 238,충청북도 청주시 청원구 오창읍 각리 639-1 청원보건소 치매안심센터,36.71040635,127.4304713,2018-12,457.26,사무실(2)+상담실(2)+검진실(1)+창고(2)+쉼터(1)+휴게실(1)+통신실(1)+카페(1),0,3.0,2.0,작업치료사(4)+임상심리사(2)+행정(3),청주시 청원보건소,정주영,043-201-4377,,치매조기검진+치매치료관리비및검진비지원+치매예방교육+인지강화교실+치매안심마을운영+치매환자맞춤형사례관리+치매공공후견인+치매환자쉼터및가족지원사업+치매파트너운영+돌봄재활사업+등,043-201-4360,청주시 청원보건소,2025-11-07,5710000,충청북도 청주시
충청북도 청주시 흥덕구 치매안심센터,치매안심센터,충청북도 청주시 흥덕구 대농로 88,충청북도 청주시 흥덕구 복대동 3402 흥덕보건소 치매안심센터,36.64147861,127.4315238,2018-08,722.44,사무실(1)+상담실(2)+검진실(1)+창고(1)+프로그램실(1)+쉼터(1)+휴게실(1)+카페(1),0,3.0,4.0,작업치료사(4)+임상심리사(2)+행정(2),청주시 흥덕보건소,홍정희,043-201-4333,,치매조기검진+치매치료관리비및검진비지원+치매예방교육+인지강화교실+치매안심마을운영+치매환자맞춤형사례관리+치매공공후견인+치매환자쉼터및가족지원사업+치매파트너운영+돌봄재활사업+등,043-201-4330,청주시 흥덕보건소,2025-11-07,5710000,충청북도 청주시
충청북도 청주시 서원구 치매안심센터,치매안심센터,"충청북도 청주시 서원구 구룡산로 235, 3층 (수곡동, 위너스빌)",충청북도 청주시 서원구 수곡동 901 서원보건소 치매안심센터,36.616052,127.4713305,2018-10,474.0,사무실(1)+상담실(2)+검진실(1)+쉼터(1)+가족카페(1),0,3.0,2.0,작업치료사(2)+임상심리사(1)+행정(6),청주시 서원보건소,권영권,043-201-3711,,치매조기검진+치매치료관리비및검진비지원+치매예방교육+인지강화교실+치매안심마을운영+치매환자맞춤형사례관리+치매공공후견인+치매환자쉼터및가족지원사업+치매파트너운영+돌봄재활사업+등,043-201-3710,청주시 서원보건소,2025-11-07,5710000,충청북도 청주시
충청북도 청주시 상당구 치매안심센터,치매안심센터,충청북도 청주시 상당구 남일면 단재로 480,충청북도 청주시 상당구 남일면 효촌리 92-2 상당보건소 치매안심센터,36.58855535,127.5053143,2019-06,992.92,사무실(1)+상담실(2)+검진실(1)+쉼터(1)+가족카페(1)+휴게실(1)+사랑방(1)+샤워실(1)+대회의실(1)+소회의실(1)+통신실(1),0,2.0,3.0,작업치료사(3)+임상심리사(1)+행정(5),청주시 상당보건소,방영란,043-201-3637,,치매조기검진+치매치료관리비및검진비지원+치매예방교육+인지강화교실+치매안심마을운영+치매환자맞춤형사례관리+치매공공후견인+치매환자쉼터및가족지원사업+치매파트너운영+돌봄재활사업+등,043-201-4306,청주시 상당보건소,2025-11-07,5710000,충청북도 청주시
충청북도광역치매센터,광역치매센터,"충청북도 청주시 서원구 1순환로 767, 지오빌딩 3층",충청북도 청주시 서원구 개신동 50-5 지오빌딩 3층,36.625449,127.463825,2013-12,333.2,사무실(2)+회의실(1)+교육실(1)+세미나실(1)+비품보관실(1),1,0.0,4.0,작업치료사(3)+임상심리사(1),충북대학교병원,김아련,043-269-6891,2019-12-27,치매인력전문화교육+치매극복의날기념식+치매극복걷기대회+치매파트너운영+치매특화사업개발+치매연구조사+등,043-220-3192,충청북도청 보건정책과,2025-11-07,5710000,충청북도 청주시
부산광역시 수영구 치매안심센터,치매안심센터,부산광역시 수영구 수영로 637-5(광안동),부산광역시 수영구 광안동 661-1,35.16247327,129.1134875,2018-12,565.18,,0,5.0,2.0,작업치료사(3)+임상심리사(1),부산광역시 수영구보건소,박병건,051-752-4000,,"치매조기검진, 치매예방프로그램, 치매환자 지원사업, 치매 인식개선 홍보 캠페인 등",051-752-4000,부산광역시 수영구보건소,2025-11-10,3380000,부산광역시 수영구
영통구치매안심센터,치매안심센터,경기도 수원시 영통구 영통로 396,경기도 수원시 영통구 영통동 961-18,37.2568819,127.0697092,2018-01,440.78,사무실(2)+프로그램실(3)+상담실(4)+휴게실(1),1,8.0,4.0,작업치료사(2),영통구보건소,이민희,031-5191-0824,,치매조기검진+치매치료관리비지원+인지프로그램운영+치매가족지지프로그램 운영 등,031-5191-0821,경기도 수원시 영통구보건소,2025-11-14,3740000,경기도 수원시
팔달구치매안심센터,치매안심센터,경기도 수원시 팔달구 팔달산로 6(교동),경기도 수원시 팔달구 교동 56-1,37.271433,127.0125194,2019-06,426.0,사무실(2)+프로그램실(3)+상담검진실(3)+가족카페(1)+원예작업장(1),6,10.0,2.0,작업치료사(2),팔달구보건소,최향란,031-5159-0630,,치매조기검진+치매치료관리비지원+인지프로그램운영+치매가족지지프로그램 운영 등,031-5159-0622,경기도 수원시 팔달구보건소,2025-11-14,3740000,경기도 수원시
대구달서구치매안심센터,치매안심센터,대구광역시 달서구 와룡로 106,대구광역시 달서구 본리동 64-1,35.84208791,128.5376272,2019-05,533.52,사무실(1)+상담실(3)+쉼터(1)+프로그램실(1)+진단검사실(1),0,13.0,5.0,작업치료사(2) + 임상심리사(1) + 기타(1),달서구보건소 (직영),이완회,053-667-5780,,치매예방교실운영+치매인지강화교실운영+치매쉼터(인지재활교실)운영+가족지원프로그램운영 및 자조모임운영+치매극복의 날 기념행사 등,053-667-5780,대구광역시 달서구보건소,2025-04-03,3470000,대구광역시 달서구
경주시 치매상담센터,치매안심센터,경상북도 경주시 봉황로 178,경상북도 경주시 성건동 620-83,35.85535748,129.2105107,2019-10,633.0,상담실1+검진실3+다목적실+교육장+자원봉사자실+사무실,0,15.0,2.0,행정(4)+작업치료사(1)+임상심리사(1),경주시보건소,경주시보건소장(진병철),054-760-2950,,치매조기검진+치매치료비지원+치매쉼터운영+치매가족프로그램 운영+치매예방교육 및 상담+치매인식개선사업+치매보듬마을 조성,054-779-8614,경상북도 경주시청,2025-04-07,5050000,경상북도 경주시
의령군치매안심센터,치매안심센터,경상남도 의령군 의령읍 의병로8길 16-1,경상남도 의령군 의령읍 서동리 534,35.31740278,128.2554461,2020-07,67195.0,사무실(1)+상담실(1)+검진실(1)+진료실(1)+쉼터(1)+가족카페(1)+프로그램실(1),0,9.0,2.0,6,의령군보건소,조미경,055-570-4072,,치매환자쉼터+치매예방교실+맞춤형 사례관리,055-570-4072,경상남도 의령군청,2024-11-19,5390000,경상남도 의령군
광주시 치매안심센터,치매안심센터,경기도 광주시 초월읍 경충대로 1009-40 (쌍동리),경기도 광주시 초월읍 쌍동리 163-7,37.36884573,127.3027505,2018-11,958.0,,0,7.0,5.0,작업치료사(1),광주시보건소,조정호,031-760-8719,,치매 조기검진+ 인지강화 프로그램+ 치매예방교실 등 치매 예방관리 통합서비스 제공,031-760-2000,경기도 광주시청,2025-06-25,5540000,경기도 광주시
원주시치매안심센터,치매안심센터,강원특별자치도 원주시 지니기길 11-20,강원특별자치도 원주시 무실동 708-9,37.32470828,127.9252620818,2020-01,954.68,"사무실(2)+검진, 교육, 행사 등 운영공간(9)+ 창고 등(5)",0,14.0,1.0,행정1+ 의무기록사1+임상심리사1+간호조무사2+방사선사1+치위생사1+작업치료사2,원주시보건소(치매안심과),임영옥,033-737-4541,,"치매조기검사  및 환자 등록, 맞춤형사례관리, 교육프로그램 운영등",033-737-4541,강원특별자치도 원주시청,2025-06-30,4191000,강원특별자치도 원주시
경상북도고령군치매안심센터,치매안심센터,경상북도 고령군 대가야읍 왕릉로 56-5,경상북도 고령군 대가야읍 지산리 232-8,35.72523517,128.2648137,2022-12,147.86,사무실(1)+프로그램실(1)+교육실(1)+치매카페(1)+상담실(1)+화장실(남/여)+탕비실(1)+대기실(1),1,4.0,3.0,작업치료사(2),고령군보건소,한혜연,054-950-7961,2018-08-14,무료치매검사+치매극복의날기념행사+치매홍보서포터즈 운영+치매환자쉼터+인지향상프로그램+예방프로그램+가족교실+가족자조모임+힐링프로그램+우리마을예쁜치매쉼터+치매안심마을 등,054-954-1300,경상북도 고령군청,2025-06-25,5200000,경상북도 고령군
김제시 치매안심센터,치매안심센터,전북특별자치도 김제시 동서8길 52,전북특별자치도 김제시 요촌동 141-8,35.797404,126.888751,2017-12,3694.0,,0,10.0,3.0,작업치료사(5)+임상심리사(2)+물리치료사(2)+기타보건인력(6),전북특별자치도 김제시 보건소,김정아,063-547-4000,,"인지재활프로그램, 인지강화프로그램, 쉼터카페제공,치매치료비지원, 치매선별검사 및 진단검사 등",063-540-1327,김제시 보건소 치매재활과,2025-07-02,4711000,전북특별자치도 김제시
함평군보건소,치매안심센터,전라남도 함평군 함평읍 중앙길 54-8,전라남도 함평군 함평읍 기각리 253,35.0621528289,126.524248,2017-12,382.0,사무실(1)+검진실(2)+상담실(1)+가족카페(1)+프로그램실(2),0,9.0,1.0,물리치료사(1),함평군보건소,심화섭,061-320-2390,,치매조기검진+치매예방교실+인지향상프로그램+치매치료관리비지원+치매환자등록관리+실종예방사업,061-320-2390,전라남도 함평군청,2025-05-14,4960000,전라남도 함평군
울릉군치매안심센터,치매안심센터,경상북도 울릉군 울릉읍 울릉순환로 396-18,,37.48590672,130.8994626,2018-05,72.0,치매단기쉼터,1,4.0,2.0,0,울릉군보건의료원,김영헌,054-790-6827,,치매치료관리비지원,054-880-3805,경상북도 보건정책과,2023-06-16,5260000,경상북도 울릉군
양양군 치매안심센터,치매안심센터,강원특별자치도 양양군 양양읍 양양로 9-5,강원특별자치도 양양군 양양읍 연창리 203-5,38.077845,128.627487,2019-08,309.0,사무실+검진실+상담실+쉼터,0,5.0,1.0,작업치료사(2)+행정(1),양양군 보건소,신승주,033-670-2496,,치매환자 등록관리/인지재활 프로그램/쉼터 프로그램,033-670-2565,양양군 보건소,2024-11-26,4351000,강원특별자치도 양양군
공주시치매안심센터,치매안심센터,충청남도 공주시 옛군청뒷길 8,충청남도 공주시 교동 131,36.45701715,127.1201721,2022-11,466.66,상담실+검진실+쉼터+가족카페,0,12.0,2.0,작업치료사4+담당 공무원7,공주시보건소,공주시보건소장(김기남),041-840-3315,2018-03-21,치매조기검진+치매노인 지문등록+치매치료관리비 지원+조호물품(위생물품) 제공+치매예방교실+인지강화교실+인지재활프로그램+기타 인지자극 프로그램+헤아림 가족교실+치매가족 힐링 프로그램+치매공공후견 사업+치매어르신주간보호소 운영(위탁)+치매안심마을 운영+치매인식 개선과 교육 및 홍보 사업+배회가능 어르신 인식표 발급 및 GPS 운영,041-840-3315,공주시보건소,2025-09-30,4500000,충청남도 공주시
용인시기흥구치매안심센터,치매안심센터,경기도 용인시 기흥구 신갈로58번길 11,경기도 용인시 기흥구 신갈동 60-3,37.272634,127.106729,2024-09,702.2,사무실(2)+프로그램실(3)+카페(1)+검진실(2),2,14.0,4.0,작업치료사 (4)+기타(3),경기도 용인시 기흥구보건소,권봉정,031-6193-0369,,치매검사+치매예방교실+치매가족교실+치매환자 쉼터 운영사업+치매치료관리비 지원+조호물품 제공 등,031-6193-0369,기흥구보건소,2025-11-27,4050000,경기도 용인시
용인시수지구치매안심센터,치매안심센터,"경기도 용인시 수지구 문정로 20, 3층",경기도 용인시 수지구 풍덕천동 719-4,37.32276658,127.0963428,2024-11,588.46,대기실(1)+사무실(1)+교육실(1)+프로그램실(2)+진료실(2)+상담실(2)+문서고(1)+가족카페(1)+창고(2)+탕비실(1),2,11.0,4.0,작업치료사(1)+물리치료사(2),경기도 용인시 수지구보건소,허선수,031-6193-0881,,상담 및 등록관리사업+치매조기검진 및 예방관리사업+치매환자쉼터 운영사업+치매가족 지원사업+치매인식개선 및 교육 홍보사업+치매안심마을 운영,031-6193-0881,수지구보건소,2025-11-27,4050000,경기도 용인시
용인시처인구치매안심센터,치매안심센터,경기도 용인시 처인구 중부대로 1199,경기도 용인시 처인구 삼가동 556,37.24086733,127.1779684,2024-09,281.0,사무실(1)+가족카페(1)+치료실(1)+검진실(1)+쉼터(1)+채움(1)+공감(1),4,9.0,4.0,작업치료사(2)+기타직군(2),경기도 용인시 처인구보건소,강경신,031-6193-0199,,무료치매검사+치매예방프로그램 운영+치매환자 및 가족프로그램 운영+치매인식개선 사업 등,031-6193-0199,처인구보건소,2025-11-27,4050000,경기도 용인시
단양군치매안심센터,치매안심센터,충청북도 단양군 단양읍 수변로 83,충청북도 단양군 단양읍 도전리 632,36.98284257,128.3707522,2018-11,309.0,,0,2.0,2.0,방문상담원(6),충청북도 단양군 보건소,임은주,043-420-3201,,인지재활,043-420-3201,충청북도 단양군 보건소,2025-09-30,4480000,충청북도 단양군
하남시 치매안심센터,치매안심센터,경기도 하남시 미사강변대로 200,경기도 하남시 망월동 980,37.5676545,127.1858194,2018-07,274.0,사무실(1)+프로그램실(2)+상담실(3)+검진실(1)+진료실(1)+카페(1),1,5.0,1.0,임상병리사(1)+치과위생사(1)+작업치료사(2),하남시 치매안심센터,박강용,031-790-6254,,"치매상담 및 등록관리사업, 치매조기검진, 예방관리사업 등",031-790-6254,하남시 치매안심센터,2025-11-27,4040000,경기도 하남시
산청군 치매안심센터,치매안심센터,경상남도 산청군 산청읍 중앙로97,경상남도 산청군 산청읍 지리 797,35.41608206,127.8842381,2019-10,881.52,사무실+상담실+검진실+프로그램실+치매카페+쉼터,1,10.0,2.0,작업치료사(2),산청군보건의료원,김솔,055-970-7647,,등록관리+조기검진+인지강화+예방교실+단기쉼터 및 치매 카페 운영+치매 인식개선 및 홍보+치매치료관리 지원 등,055-970-7647,경상남도 산청군보건의료원,2024-11-13,5450000,경상남도 산청군
미추홀구치매안심센터,치매안심센터,"인천광역시 미추홀구 경인로 34번길 20, 5층","인천광역시 미추홀구 숭의동 190-4, 5층",37.46303566,126.6472695,2010-02,594.0,,2,23.0,3.0,,인천광역시 미추홀구보건소,차남희,032-728-6520,,치매조기검진+치매치료관리비지원+인지재활프로그램 운영+치매가족교육+치매관련교육+조호물품 제공 등,032-728-6520,인천광역시 미추홀구보건소,2024-10-30,3510500,인천광역시 미추홀구
미추홀돌봄의집,치매안심센터,"인천광역시 미추홀구 경인로 34번길 20, 6층7층","인천광역시 미추홀구 숭의동 190-4, 6층7층",37.46303566,126.6472695,2000-01,755.0,,0,4.0,2.0,,인하대학교산학협력단,김주형,032-883-0310,2022-01-01,회상요법+미술치료+음악치료 등 인지재활 프로그램,032-728-6573,인천광역시 미추홀구보건소,2024-10-30,3510500,인천광역시 미추홀구
구례군 치매안심센터,치매안심센터,전라남도 구례군 구례읍 동편제길 30,전라남도 구례군 구례읍 백련리 576,35.21607284,127.4617801,2018-12,437.0,검진실(1)+진료실(1)+사무실(1)+가족카페(1)+프로그램실(1)+가족교실(1),1,5.0,3.0,작업치료사(1),구례군보건의료원,김윤길,061-780-2933,,치매쉼터프로그램+치매예방교실+인지강화 교실,061-780-2006,전라남도 구례군청,2024-10-07,4870000,전라남도 구례군
마포구치매안심센터,치매안심센터,서울특별시 마포구 대흥로 24길 50,,37.55463836,126.9487477,2007-07,1236.0,진료실 검진실 프로그램실 사무실 강당,1,12.0,5.0,5,가톨릭대학교서울성모병원,양동원,02-3272-1578,2024-01-01,치매예방및인식개선사업+치매조기검진 및 등록관리사업+치매치료비및원인확진검사비지원+치매가족지원+공공후견사업,02-3153-9062,마포구보건소건강동행과,2025-09-09,3130000,서울특별시 마포구
중구치매안심센터,치매안심센터,"인천광역시 중구 참외전로72번길 21, 4층","인천광역시 중구 전동 2-1, 4층",37.47721594,126.6291077,2018-11,549.61,사무실(1)+상담실(2)+진료실(1)+프로그램실(1)+쉼터(1),0,7.0,1.0,작업치료사(1),인천광역시 중구보건소,정한숙,032-760-6063,,"치매조기검진(선별,진단,감별검사)+치매환자등록관리+맞춤형사례관리+치매치료관리비 지원+조호물품 지원+치매안심마을 만들기+공공후견인사업운영+치매예방교실 운영(미술활동, 치매예방운동, 보드게임,한지공예,원예교실 등)+가족힐링프로그램(드라이플라워, 자조모임 등)+쉼터운영(운동치료,요리치료,미술치료,음악치료,감각활동,전산화인지재활,인지카드학습)+치매인식개선 및 홍보 사업+치매파트너 양성사업 등",032-760-6010,인천광역시 중구보건소,2025-09-09,3490000,인천광역시 중구
정선군치매안심센터,치매안심센터,강원특별자치도 정선군 정선읍 녹송로 33,강원특별자치도 정선군 정선읍 봉양리 80-5,37.38005958,128.6714859,2020-03,,사무실+검진실+쉼터+가족카페+교육실+상담실,0,6.0,1.0,작업치료사(2),정선군보건소,신애정,033-560-2565,,치매상담 및 등록+치매조기검진사업+치매예방교실+치매환자쉼터+치매가족교실+치매치료비지원+치매환자조호물품지원+치매인식개선사업 등,033-560-2565,정선군보건소,2025-08-04,4291000,강원특별자치도 정선군
안성시 치매안심센터,치매안심센터,경기도 안성시 강변로74번길 18,경기도 안성시 도기동 67-21,37.0001476,127.2698156,2017-01,792.07,사무실(1)+상담교육실(1)+치매쉼터(4)+가족카페(4)+프로그램실(2),0,8.0,5.0,작업치료사(4)+임상심리사(1)+행정인력(2),안성시 보건소,신형진,031-678-3002,,치매조기검진+환자등록+맞춤형 사례관리+치매쉼터 운영+치매예방교실+가족교육+치매치료관리비지원+실종예방 지문등록 및 배회인식표 발급 등,031-678-3002,경기도 안성시,2025-08-04,4080000,경기도 안성시
동구 치매안심센터,치매안심센터,대전광역시 동구 현암로 22 (삼성동),대전광역시 동구 삼성동 374-1,36.34298696,127.4204617,2025-04,,,0,8.0,4.0,행정운영(6),동구 보건소,안옥,042-621-6011,,치매 조기검진+치매예방 및 인지강화 프로그램+치매환자 조호물품 등 지원+환자가족 상담 및 힐링프로그램 등,,대전광역시 동구청,2025-07-30,3640000,대전광역시 동구
완주군치매안심센터,치매안심센터,전북특별자치도 완주군 삼례읍 삼봉8로 10-12,전북특별자치도 완주군 삼례읍 수계리 1242-1,35.9216752268,127.1225327916,2017-01,499.49,,0,13.0,0.0,,전북특별자치도 완주군보건소,,063-290-3188,,무료치매검사+맞춤형사례관리+치매환자가족교실+치매파트너 등,,전북특별자치도 완주군청,2025-08-05,4721000,전북특별자치도 완주군
성북구치매안심센터 분소,치매안심센터,서울특별시 성북구 한천로 568 장위석관지소 3층,,37.610489,127.063389,2022-12,182.8,사무실(1)+검사실(2)+프로그램실(2)+가족카페(1),1,11.0,3.0,작업치료사(6)+행정(1),건국대학교병원,전홍준,02-918-2223,2023-01-01,치매조기검진+인지카페 기억다방 운영+치매안심마을운영+기억키움학교+치매 찾동 협업 인지강화프로그램 등,02-2133-6137,서울특별시 성북구청,2025-08-05,3070000,서울특별시 성북구
성북구치매안심센터,치매안심센터,서울특별시 성북구 화랑로 63 성북구보건소 5층,,37.602942,127.039536,2007-12,549.9,사무실(1)+검사실(3)+프로그램실(4)+가족카페(1),1,11.0,3.0,작업치료사(6)+행정(1),건국대학교병원,전홍준,02-918-2223,2023-01-01,치매조기검진+인지카페 기억다방 운영+치매안심마을운영+기억키움학교+치매 찾동 협업 인지강화프로그램 등,02-2133-6137,서울특별시 성북구청,2025-08-05,3070000,서울특별시 성북구
인제군치매안심센터,치매안심센터,강원특별자치도 인제군 인제읍 인제로140번길 34,강원특별자치도 인제군 인제읍 남북리 789-1,38.06327706,128.1685854,2019-12,719.3,사무실(2)+치매환자쉼터(1)+가족카페(1)+교육실(2)+검진+상담실(1)+창고(3),2,4.0,1.0,행정(2)+작업치료사(2),인제군 보건소,허준용,033-460-2523,,무료치매검사+경증치매환자단기쉼터운영+ 인지재활프로그램+ 정상군 치매예방교실+치매고위험군 인지강화교실+ 치매인식개선+ 기타 치매환자 조호물품+ 치매치료관리지지원+실종예방사업,,강원특별자치도 인제군청,2024-12-13,4331000,강원특별자치도 인제군
영동군치매안심센터,치매안심센터,충청북도 영동군 영동읍 반곡동길 7,충청북도 영동군 영동읍 매천리 444-1,36.16849628,127.7759673,2018-12,488.0,쉼터+카페+교육실+프로그램실+사무실+상담실+검진실,1,4.0,1.0,임상심리사(1)+작업치료사(2)+일반보건직(3),영동군보건소,박한석,043-740-5941,,치매예방교실+인지강화교실+쉼터,043-740-5941,충청북도 영동군 보건소,2023-12-01,4440000,충청북도 영동군
대구광역시 수성구 치매안심센터,치매안심센터,대구광역시 수성구 수성로 213,,35.84495927,128.6119385,2019-03,998.0,,0,14.0,4.0,7(작업치료사 4명 + 임상심리사 2명 + 행정 1명),수성구보건소,여수환,053-666-3181,,치매조기검진+치매환자 및 가족 프로그램운영+인식개선활동 및 홍보 등,053-666-4866,대구광역시 수성구보건소,2025-07-18,3460000,대구광역시 수성구
삼척시치매안심센터,치매안심센터,강원특별자치도 삼척시 척주로 76,강원특별자치도 삼척시 남양동 347-4,37.44374981,129.172207,2024-12,555.84,,1,8.0,0.0,물리치료사(1),강원특별자치도 삼척시 보건소,이희숙,033-570-4327,,치매조기검진+치매환자 등록관리+치매예방교실+치매환자 쉼터 운영 등,033-572-4000,강원특별자치도 삼척시 보건소,2025-07-22,4241000,강원특별자치도 삼척시
부산광역시 동래구 치매안심센터,치매안심센터,부산광역시 동래구 명륜로187번길 56,부산광역시 동래구 명륜동 702-54,35.211408,129.079856,2018-06,500150.0,,3,10.0,2.0,임상심리사(1)+작업치료사(2),부산광역시 동래구보건소,정규석,051-555-6767,,치매상담 및 등록관리+치매조기검진 및 예방관리+치매환자쉼터 운영+치매가족 지원+치매인식개선 및 교육홍보 등,051-555-4000,부산광역시 동래구보건소,2025-07-23,3300000,부산광역시 동래구
정읍시 치매안심센터,치매안심센터,전북특별자치도 정읍시 금붕1길 215,전북특별자치도 정읍시 금붕동 949-3,35.55439734,126.893609,2019-12,649.3,사무실(1)+검진실(3)+가족카페(1)+프로그램실(1)+쉼터(1)+교육실(1),0,10.0,5.0,"5(치매관리팀장, 행정담당자2, 작업치료사2)",정읍시 보건소,손희경,063-539-6942,,치매 예방프로그램+인지강화프로그램+쉼터+가족지원사업 등,,전북특별자치도 광역치매센터,2025-07-23,4691000,전북특별자치도 정읍시
익산시치매안심센터,치매안심센터,전북특별자치도 익산시 동서로91,전북특별자치도 익산시 모현동2가 267-1,35.95692803,126.9456811,2018-04,877.0,사무실(1)+상담검진실(4)+쉼터및프로그램실(3)+기타(1),0,12.0,2.0,작업치료사4+임상심리사2+행정/(공무원)4,익산시보건소(보건사업과),이진윤,063-859-7550,,치매환자 등록관리+치매조기검진사업+치매치료비 지원 사업+인지증진프로그램+치매환자 가족지지모임 등,063-859-7452,익산시보건소,2025-07-28,4681000,전북특별자치도 익산시
울주치매안심센터,치매안심센터,울산광역시 울주군 웅촌면 은현작동로 49,울산광역시 울주군 웅촌면 검단리 1091-19,35.45690394,129.176837,2018-05,300.78,검진실(1)+상담실(2)+단기쉼터(1)+가족카페(1)+사무실(1)+강당(1)+운동치료실(1),1,11.0,1.0,임상병리사(1)+작업치료사(1)+치위생사(1)+의무기록사(1),울주군보건소,유점숙,052-204-2878,,치매상담 및 등록+치매조기검진+치매예방프로그램 운영+치매인식개선홍보+치매안심마을 운영+치매공공후견사업+단기쉼터 운영 등,052-204-2798,울산광역시 울주군보건소,2025-04-23,3730000,울산광역시 울주군
경상북도 광역치매센터,광역치매센터,경상북도 경주시 동대로 87,경상북도 경주시 석장동 1090-1,35.85850364,129.1928772,2013-12,267.0,사무실(1)+회의실(1)+상담실(1)+교육실(2),1,4.0,3.0,작업치료사 2,동국대병원,곽경필,054-777-6400,2022-01-01,치매관리사업기획교육사업진단 및 조호인프라 구축연구 및 지역특화사업대국민인식개선사업,054-880-3797,경상북도청,2025-01-17,6470000,경상북도
고창군치매안심센터,치매안심센터,전북특별자치도 고창군 고창읍 전봉준로 90,전북특별자치도 고창군 고창읍 율계리 101,35.44376255,126.6832504,2011-01,353.0,사무실(1)+회의실(1)+검진실(1)+상담실(1)+프로그램실(1)+가족카페(1)+대기실(1),1,8.0,2.0,작업치료사(2),고창군보건소,유병수,063-560-8725,,무료치매검사+치매환자 등록관리+인지증진 재활 프로그램+맞춤형사례관리+가족지원프로그램 등,063-560-8729,전북특별자치도 고창군청,2024-06-26,4781000,전북특별자치도 고창군
전라남도광역치매센터,광역치매센터,전라남도 순천시 순광로 221,전라남도 순천시 조례동 1742,34.96375005,127.542936,2022-12,465.0,,1,2.0,5.0,작업치료사(1),전라남도,김영록,061-286-6042,2021-01-01,치매관련 자원 발굴+치매 연구·통계,061-726-6981,성가롤로 병원,2025-11-05,6460000,전라남도
기장군 치매안심센터,치매안심센터,부산광역시 기장군 정관읍 용수로 11,부산광역시 기장군 정관읍 용수리 1314-1,35.32519724,129.1793766,2020-12,431.67,,1,9.0,4.0,3,기장군보건소,최병무,051-709-2983,2020-01-01,치매 선별검사+치매환자 인지재활 프로그램+치매환자가족교실+자조모임+치매 예방교육 등,051-709-2983,기장군보건소,2025-11-19,3400000,부산광역시 기장군
사상구치매안심센터,치매안심센터,부산광역시 사상구 학감대로 242(감전동),부산광역시 사상구 감전동 138-8,35.15254918,128.9914565,2019-12,624.48,사무실+상담실+진단실+배움터+쉼터+가족카페,1,11.0,4.0,작업치료사(3)+임상병리사(1),부산광역시 사상구보건소,이정민,051-310-3362,,치매환자 등록 관리+중증치매노인공공후견+사례관리+치매치료관리비 지원+치매조기검진+치매환자 쉼터 및 가족지원+치매 인식 개선을 위한 홍보 캠페인 등,051-310-3362,부산광역시 사상구 사상구보건소,2025-11-14,3390000,부산광역시 사상구
영등포구치매안심센터,치매안심센터,서울특별시 영등포구 당산로 29길 9,서울특별시 영등포구 당산동3가 407,37.525994,126.893979,2009-12,854.21,검사실(4)+진료실(1)+프로그램실(5)+쉼터(2)+카페(1)+사무실(1)+화장실 각층(3),1,9.0,4.0,작업치료사(5)+음악치료사(1)+운동처방사(1)+행정요원(1),한림대학교 강남성심병원,정산,02-831-0855,2024-12-01,"치매예방 및 인식개선(교육, 홍보)치매조기검진(선별검진, 정밀검진)치매예방등록사업(상담 및 사례관리, 환자 및 가족 지원, 인지건강 프로그램 운영)치매치료비 및 원인확진검사비 지원(저소득 치매환자)치매지역사회 지원강화(지역사회 인적, 물적 자원 연계)치매통합관리 정보시스템 구축 운영",02-2670-4752,영등포구 보건소(건강증진과),2025-11-21,3180000,서울특별시 영등포구
일산서구보건소치매안심센터,치매안심센터,경기도 고양시 일산서구 일중로 54,경기도 고양시 일산서구 일산동 1680-6,37.6844752346,126.7757855168,2018-06,315.0,,1,5.0,1.0,방사선사(1)+임상병리사(1)+임상심리사(1)+작업치료사(2)+물리치료사(1)+영양사(1),일산서구보건소,이향숙,031-8075-4871,,치매선별검사 및 진단검사 실시+치매환자등록ㆍ조호물품ㆍ치매치료관리비 지원+경증 치매환자 쉼터 운영+치매예방 프로그램 운영+치매 안심마을 운영+치매 인식개선사업+치매환자 실종예방사업,031-8075-4871,일산서구보건소 치매안심센터,2025-09-10,3940000,경기도 고양시
일산동구보건소치매안심센터,치매안심센터,경기도 고양시 일산동구 중앙로 1100,경기도 고양시 일산동구 백석동 1195,37.6461363846,126.7847187569,2018-04,627.47,,1,8.0,1.0,영양사(1)+의무기록사(1)+작업치료사(2),일산동구보건소,홍효명,031-8075-4850,,치매선별검사 및 진단검사 실시+치매환자등록ㆍ조호물품ㆍ치매치료관리비 지원+경증 치매환자 쉼터 운영+치매예방 프로그램 운영+치매 안심마을 운영+치매 인식개선사업+치매환자 실종예방사업,031-8075-4850,일산동구보건소 치매안심센터,2025-09-10,3940000,경기도 고양시
용산구치매안심센터,치매안심센터,서울특별시 용산구 녹사평대로 150,서울특별시 용산구 이태원동34-87,37.5324394,126.9904783,2009-12,574.82,사무실(1)+교육실(1)+프로그램실(2)+신체계측실(1)+검진실(3)+진료실(1)+센터장실(1)+가족카페(1)+치매환자쉼터(1),1,9.0,3.0,작업치료사(6)+음악치료사(1),순천향대학교 서울병원,서교일,02-790-1541,2009-10-19,조기검진사업+치매환자등록관리사업+치매환자쉼터 운영사업+가족모임운영+교육 및 인지프로그램 운영+치매예방관리사업+홍보사업+치매파트너 양성+지역자원강화사업 등,02-2199-8082,서울특별시 용산구 보건소,2025-08-05,3020000,서울특별시 용산구
경상북도 안동시 치매안심센터,치매안심센터,경상북도 안동시 보현로12,경상북도 안동시 용상동 1517-263,36.55003666,128.7588531,2019-12,999.28,사무실(2)+검진실(1)+교육실(1)+회의실(1)+카페(1),0,19.0,2.0,임상심리상담사(2)+작업치료사(1)+행정(6),안동시 치매안심센터,김경숙,054-840-5789,,치매검진+치매상담+치매쉼터+인지강화교실+치매예방교실+조호물품지원+치매가족지원,054-855-5986,경상북도 안동시보건소,2025-08-16,5070000,경상북도 안동시
울산광역시북구치매안심센터,치매안심센터,울산광역시 북구 산업로 1018,울산광역시 북구 연암동 1082,35.58355486,129.3607258,2018-10,324.0,사무실+환자쉼터+가족카페+검진실+교육실+프로그램실,1,6.0,1.0,작업치료사(3),울산광역시 북구보건소,신수진,052-241-8257,,치매 조기검진+치매환자 등록관리+교육지원,052-289-3450,울산광역시 북구보건소,2025-08-25,3720000,울산광역시 북구
성동구치매안심센터,치매안심센터,서울특별시 성동구 왕십리로5길 3 (성수1가제2동 공공복합청사 5층),서울특별시 성동구 성수동1가 685-580,37.546403,127.0443497,2007-07,558.09,인지건강센터,1,9.0,3.0,작업치료사(4)+회계사(1),서울특별시 서울의료원,김희진,02-499-8071,2017-01-01,치매검진+치매예방등록관리+지역사회자원 강화,02-2286-7033,성동구보건소,2025-08-27,3030000,서울특별시 성동구
서울특별시송파구치매안심센터,치매안심센터,서울특별시 송파구 충민로 184,서울특별시 송파구 장지동 850-2,37.48578411,127.1341622,2008-03,682.0,사무실(2)+검진실(3)+프로그램실(2)+가족소모임실(1)+치매가족카페(1),0,11.0,5.0,작업치료사(6),송파구보건소,이영숙,02-2147-5050,,치매조기검진+치매인식개선 및 등록관리사업+쉼터 및 인지건강프로그램 운영,02-2147-2356,서울특별시 송파구청,2023-07-03,3230000,서울특별시 송파구
전주시 치매안심센터,치매안심센터,전북특별자치도 전주시 완산구 전라감영로 33,전북특별자치도 전주시 완산구 중앙동4가 30-1,35.81584604,127.1433514,2021-11,239.58,사무실+휴게실+프로그램실 등,0,13.0,3.0,임상심리사(1)+작업치료사(1)+기타행정인력(1),전주시보건소,김신선,063-281-6291,,"치매환자 등록관리, 인지재활프로그램,가정방문사례관리 등",063-281-6291,전주시 보건소,2025-02-10,4641000,전북특별자치도 전주시
담양군치매안심센터,치매안심센터,전라남도 담양군 담양읍 완동길 10-5,전라남도 담양군 담양읍 만성리 116-1,35.32470339,126.9807889,2019-02,613.81,사무실+휴게실+진단실+치매쉼터+프로그램실+정신진단실+정신가족쉼터+창고+화장실1+화장실2+엘리베이터+홀/복도,1,10.0,0.0,행정(2)+작업치료사(3),담양군치매안심센터,김동진,061-380-2971,,치매상담 및 등록관리사업+일반조기검진사업+치매치료관리비지원+치매환자조호물품제공+배회가능어르신인식표발급+인지강화프로그램운영+치매예방교육운영+치매예방교실운영+치매환자쉼터프로그램운영+헤아림가족교실운영+치매파트너양성+치매극복선도단체양성+치매환자맞춤형사례관리사업,061-380-2971,전라남도 담양군청,2023-12-01,4850000,전라남도 담양군
관악구치매안심센터,치매안심센터,서울특별시 관악구 관악로 145 관악구청 별관 3층,서울특별시 관악구 봉천동 1570-1 관악구청 별관 3층,37.47864563,126.9509331,2008-12,495.73,사무실(1)+검진상담실(4)+교육실(2)+프로그램실(1)+가족카페(1)+기타(난곡치매안심분소),0,8.0,3.0,작업치료사(4),서울특별시 관악구보건소,최정화,02-879-4910,,치매조기검진 및 등록관리+치매예방 및 인식개선+치매의료비 지원+인지건강프로그램 및 치매환자쉼터 운영+치매환자 가족지원,02-879-7141,서울특별시 관악구보건소,2025-11-13,3200000,서울특별시 관악구
광주광역시북구치매안심센터,치매안심센터,광주광역시 북구 북문대로 234(동림동),광주광역시 북구 동림동 1156-3,35.18696192,126.8668762,2019-09,,,1,13.0,1.0,행정(2)+청사환경관리(1),광주광역시 북구 보건소,김은숙,062-410-8124,,치매조기검진+치매치료비지원+조호물품 지원+인식표배부 등,062-410-8124,광주광역시 북구 보건소,2025-11-28,3620000,광주광역시 북구
서구 치매안심센터,치매안심센터,광주광역시 서구 상무대로884번길 17-20 (쌍촌동),광주광역시 서구 쌍촌동 1004-13,35.148879,126.860306,2019-09,499.0,,1,11.0,1.0,행정직2+보건직3+의료기술직1+임상심리사2+작업치료사1,광주광역시 서구 치매안심센터,이원구,062-350-4759,,치매조기검진+치료관리비 지원+치매환자맞춤형사례관리+치매인식개선홍보캠페인등,062-350-4759,광주광역시 서구 치매안심센터,2025-11-27,3600000,광주광역시 서구
서천군 치매안심센터,치매안심센터,충청남도 서천군 서천읍 사곡길 20-2,충청남도 서천군 서천읍 군사리 803,36.0817289,126.6887353,2019-12,906.0,사무실(1)+강당(1)+카페(1)+프로그램실(2),0,12.0,1.0,,서천군보건소,나성구,041-950-6741,,치매환자등록관리사업+치매조기검진사업+치매치료비지원사업+치매환자쉼터,041-950-6719,충청남도 서천군청,2025-11-28,4580000,충청남도 서천군
동작구치매안심센터,치매안심센터,서울특별시 동작구 남부순환로 2025,서울특별시 동작구 사당동 1049-11,37.47643044,126.9736106,2023-08,922.8,검진실+프로그램실+쉼터+상담실 등,2,8.0,3.0,행정(8),서울특별시 보라매병원,이재협,02-598-6088,2009-08-27,치매환자 상담 및 등록관리+치매조기검진+치매예방관리+치매환자쉼터운영+치매가족지원+치매인식개선및교육홍보+치매안심마을운영,02-820-9582,서울특별시 동작구보건소,2025-12-04,3190000,서울특별시 동작구
남동구보건소치매안심센터,치매안심센터,인천광역시 남동구 소래로 633,인천광역시 남동구 만수동 1008(남동구보건소),37.4473902,126.7306784,2019-01,,,0,19.0,1.0,임상심리사(1)+작업치료사(2)+기타(13),남동구보건소,,032-453-5910,,치매예방교육+인지강화 프로그램+쉼터 프로그램+찾아가는 치매예방교육 및 선별검사,032-453-5812,인천광역시 남동구 치매정신건강과,2025-11-20,3530000,인천광역시 남동구
경상남도 진주시 치매안심센터,치매안심센터,"경상남도 진주시 월아산로 2026, 서부청사 1층","경상남도 진주시 초전동 348-2, 서부청사 1층",35.21469804,128.122903,2018-12,,,3,20.0,1.0,간호조무사(1)+작업치료사(1),진주시보건소,황혜경,055-749-5778,,치매선별 및 진단검사+치매안심센터 쉼터운영+치매극복의 날 행사+치매파트너+파트너플러스+치매안심마을 운영,055-749-5778,진주시보건소,2025-12-04,5310000,경상남도 진주시
강북구치매안심센터,치매안심센터,"서울특별시 강북구 오현로 208, 번동3단지 세대복합형 복지주택 1층",서울특별시 강북구 번동 237,37.6296739,127.0411454,2023-06,271.0,사무실+프로그램실+검진실 등,0,2.0,2.0,작업치료사(1)+행정요원(1),고려대학교의료원 안암병원,이찬녕,02-991-9832,2024-01-01,조기검진+쉼터+가족지원+인식개선 등치매검진+치매치료비+조호물품+배회인식표+가족모임+인지건강센터+기억친구 등,02-901-7768,강북구 보건소,2025-12-05,3080000,서울특별시 강북구
강북구치매안심센터,치매안심센터,"서울특별시 강북구 삼양로 335-1, 수유보건지소 2층",서울특별시 강북구 수유동 472-31,37.63340541,127.0171111,2009-08,415.03,사무실+프로그램실+검진실+강당+주차장 등,1,2.0,5.0,작업치료사(5)+임상심리사(1),고려대학교의료원 안암병원,이찬녕,02-991-9831,2024-01-01,조기검진+쉼터+가족지원+인식개선 등치매검진+치매치료비+조호물품+배회인식표+가족모임+인지건강센터+기억친구 등,02-901-7768,강북구 보건소,2025-12-05,3080000,서울특별시 강북구
갈매치매안심실(분소),치매안심센터,"경기도 구리시 갈매중앙로 80, 갈매동 복합청사 3층",경기도 구리시 갈매동 583-1,37.63144308,127.1177774,2023-01,84.0,,0,1.0,0.0,작업치료사(1),경기도 구리시보건소,김은주,031-550-8313,,치매조기검진+치매쉼터운영+치매환자지원서비스,031-550-8312,경기도 구리시청,2025-12-08,3980000,경기도 구리시
구리시 치매안심센터,치매안심센터,"경기도 구리시 건원대로 34번길 84, 구리시보건소 4층",경기도 구리시 인창동 674-3,37.60477675,127.1450794,2019-12,330.0,,1,7.0,1.0,보건직(1)+임상심리사(2)+작업치료사(3)+요양보호사(1),경기도 구리시보건소,김은주,031-550-8313,,치매쉼터 운영+치매조기검진+인지재활프로그램 운영+가족카페 운영+치매공공후견사업+치매환자지원서비스+치매극복의날 기념행사,031-550-8312,경기도 구리시청,2025-12-08,3980000,경기도 구리시
동구치매안심센터,치매안심센터,"광주광역시 동구 서남로 14, 7층","광주광역시 동구 서남로 14, 7층",35.14495168,126.9231621,2018-09,610.34,사무실(1)+검진실(2)+상담실(1)+사랑방(1)+프로그램실(1)+대회의실(1)+가족카페(1)+옥상정원(1),1,11.0,1.0,행정(1)+작업치료사(2)+물리치료사(1),광주광역시 동구보건소,심옥선,062-608-3490,,치매예방관리(조기검진+예방교육+인식개선)+치매등록관리(상담+사례관리+프로그램),062-608-3471,광주광역시 동구보건소,2024-09-20,3590000,광주광역시 동구
무주군치매안심센터,치매안심센터,전북특별자치도 무주군 무주읍 한풍루로413,전북특별자치도 무주군 무주읍 당산리 701,36.005882,127.6716991,2018-07,309.0,사무실+프로그램실,1,6.0,1.0,"공무원(2),공무직(1)",무주군보건의료원,홍찬표,063-320-8601,,치매예방+인지강화+인지재활,,전북특별자치도 무주군보건의료원,2025-08-18,4741000,전북특별자치도 무주군
해운대구치매안심센터,치매안심센터,부산광역시 해운대구 양운로 37번길 59 별관 4층,부산광역시 해운대구 좌동 1339 별관 4층,35.16410942,129.1786558,2017-12,630.0,진료실(1)+교육상담실(1)+검진실(2)+프로그램실(1)+대기실(1)+가족카페(1)+사무실(1),4,15.0,2.0,임상심리사(1)+작업치료사(2)+행정(1),해운대구보건소,안여현,051-749-0770,,"치매조기검진(선별,정밀)+치매환자 상담 및 등록관리+조호물품지원+치매치료비지원+치매환자 공공후견인지원+치매예방교실+인지강화교실+인지재활교실+가족교실(헤아림)+가족모임지원 등",051-749-7572,부산광역시 해운대구청,2025-07-14,3330000,부산광역시 해운대구
군위군치매안심센터,치매안심센터,대구광역시 군위군 군위읍 군청로 70,대구광역시 군위군 군위읍 동부리 676-3 군위군치매안심센터,36.22951326,128.5697884,2019-12,330.0,단기치매쉼터+치매가족카페+교육실+검진실+사무실,1,6.0,2.0,,군위군보건소,윤영국,054-380-7491,,상담및등록관리사업+치매조기검진사업+치매예방관리사업+치매환자쉼터+치매지원서비스관리(치매치료관리비 지원)+치매안심마을운영+맞춤형사례관리사업+치매가족및보호자지원사업+치매인식개선 홍보,054-380-7423,대구광역시 군위군청,2025-07-17,5141000,대구광역시 군위군
경산시 치매안심센터,치매안심센터,경상북도 경산시 남매로 158,경상북도 경산시 중방동 708-5,35.82511247,128.7432823,2019-09,,진료실+검사실(3)+교육상담실+심리검사실+자원봉사자실+탕비실+물품보관실+문서고+프로그램실(3)+사무실+가족카페+카페사랑방 등,2,14.0,2.0,행정(3)+작업치료사(2),경산시보건소,안병숙,053-810-6435,,"치매선별검진, 우리마을 예쁜 치매쉼터",053-810-6418,경상북도 경산시보건소,2025-07-18,5130000,경상북도 경산시
부산진구치매안심센터,치매안심센터,부산광역시 부산진구 새싹로253,부산광역시 부산진구 초읍동 278-8,35.178777,129.0475494,2018-12,548.48,,0,10.0,6.0,"작업치료사(2),임상심리사(1)",부산광역시 부산진구청,김영욱,051-605-6107,,치매조기검진+치매대상자 등록관리+치매치료관리비지원+치매인식개선 및 홍보 등,051-605-6107,부산진구보건소,2025-06-30,3290000,부산광역시 부산진구
광주광역시광역치매센터,광역치매센터,"광주광역시 동구 제봉로 27, 한일빌딩 4층",,35.1411286,126.9211291,2017-01,0.0,0,1,3.0,3.0,1(작업치료사),전남대학교병원,신일선,062-226-2181,2025-01-01,치매극복의날 기념행사+한마음 치매극복 걷기행사+치매예방교육 및 시민건강강좌+치매관련종사자 교육 등,,광주광역시청,2025-06-20,6290000,광주광역시
순창군 치매안심센터,치매안심센터,전라북도 순창군 순창읍 교성로 135,전라북도 순창군 순창읍 교성리 418,35.36710476,127.1436245,2017-12,82.64,화장실+회의실,1,2.0,0.0,1,전라북도 순창군 보건의료원,정영곤,063-650-5247,,찾아가는 경로당 치매예방교실+치매고위험군 인지증진프로그램+치매가족지지 프로그램 헤아림+치매조기검진,063-650-5247,전라북도 순창군 보건의료원,2022-06-15,4771000,전북특별자치도 순창군
보성군치매안심센터,치매안심센터,전라남도 보성군 보성읍 갱맹골길 206,전라남도 보성군 보성읍 주봉리 529,34.7664558,127.071271,2017-01,344.0,사무실+검진실+가족카페+쉼터+프로그램실+상담실,2,8.0,0.0,2,전라남도 보성군보건소,김학성,061-850-8695,2018-11-27,치매조기검진 및 등록 관리+치매예방교실+조호물품제공 등,061-853-4000,전라남도 보성군보건소,2025-08-12,4890000,전라남도 보성군
포항시북구치매안심센터,치매안심센터,경상북도 포항시 북구 삼흥로 96(장성동),경상북도 포항시 북구 장성동 1363-3,36.07072182,129.3797119,2019-12,1256.95,인지검사실+치매가족카페+사무실+프로그램실+상담실,2,13.0,5.0,임상심리사(1)+작업치료사(4)+비약물치료사(1),포항시북구보건소,,054-270-8951,,치매무료검진+상담 및 등록+치매예방교실 및 치매환지쉼터 프로그램 운영+치매치료관리비지원+조호물품 제공+맞춤형사례관리+실종노인의 발생예방 및 찾기 사업+ 치매가족교실 운영+치매극복의 날 기념행사+치매서포터즈 교육,054-270-4114,포항시 북구보건소,2025-08-12,5020000,경상북도 포항시
포항시남구치매안심센터,치매안심센터,경상북도 포항시 남구 오천읍 남원로 43,경상북도 포항시 남구 오천읍 원리 896,35.9704125,129.405147,2019-12,987.52,인지검사실+치매가족카페+사무실+프로그램실+상담실,2,12.0,5.0,임상심리사(1)+작업치료사(4)+간호조무사(1),포항시남구보건소,,054-270-8901,,치매무료검진+치매극복의 날 기념행사+치매서포터즈 교육+상담 및 등록+치매예방교실 및 치매환지쉼터 프로그램 운영+치매치료관리비지원+조호물품 제공+맞춤형사례관리+실종노인의 발생예방 및 찾기 사업+치매가족교실 운영,054-270-4004,포항시 남구보건소,2025-08-12,5020000,경상북도 포항시
하동군치매안심센터,치매안심센터,경상남도 하동군 횡천면 경서대로 1189,경상남도 하동군 횡천면 횡천리 575-3,35.1097955,127.815102,2018-12,,상담실+사무실+가족카페+프로그램운영실+치매환자쉼터,0,9.0,3.0,행정(2)+작업치료사(2)+송영일반(1),경상남도 하동군 보건소,장성훈,055-880-6850,,쉼터운영+치매예방교실운영+치매상담등록관리+치매안심마을운영+치매조기검진+치매환자맞춤형사례관리+치매환자가족프로그램운영+인지강화교실운영+치매파트너 양성,055-882-4000,경상남도 하동군 보건소,2025-05-20,5440000,경상남도 하동군
대전광역치매센터,광역치매센터,대전광역시 중구 문화로 282,대전광역시 중구 대사동 640,36.31684464,127.4153053,2019-03,217.55,"센터장실, 행정실, 프로그램A,B 상담AB실, 치매사업프로그램준비실",1,1.0,3.0,4,충남대학교병원,송민호,042-280-8968,2017-01-01,"치매관리 인프라/네트워크 구축,대국민인식개선사업, 교육,연구,조호사업",042-280-8968,충남대학교병원,2020-12-14,6300000,대전광역시
완도군치매안심센터,치매안심센터,전라남도 완도군 완도읍 농공단지길 34,전라남도 완도군 완도읍 죽청리 483-8,34.33582329,126.731327,2018-12,,,1,5.0,3.0,2,완도군보건의료원,김선종,061-550-5810,,치매조기검진 치매예방관리사업 치매사례관리 치매인식개선 및 홍보 치매공공후견인 치매치료관리비 지원사업,061-550-5810,완도군,2021-10-14,4990000,전라남도 완도군
덕양구보건소치매안심센터,치매안심센터,경기도 고양시 덕양구 은빛로 72,경기도 고양시 덕양구 화정동 958,37.6371263948,126.8360076,2018-07,171.88,,1,8.0,2.0,작업치료사(4)+물리치료사(1)+임상병리사(1),덕양구보건소,심평수,031-8075-4800,,치매선별검사 및 진단검사 실시+치매환자등록ㆍ조호물품ㆍ치매치료관리비 지원+경증 치매환자 쉼터 운영+치매예방 프로그램 운영+치매 안심마을 운영+치매 인식개선사업+치매환자 실종예방사업,031-8075-4800,덕양구보건소 치매안심센터,2025-09-10,3940000,경기도 고양시
양주시 서부 치매안심센터(분소),치매안심센터,경기도 양주시 광적면 부흥로 618번길 303,경기도 양주시 광적면 광석리 132,37.81249969,126.9723072,2022-12,1096.0,쉼터+가족카페+원예치료실등,0,4.0,0.0,작업치료사(1)+송영(1),양주시보건소,김정은,031-8082-4388,2019-12-30,치매조기검진+치매예방프로그램+치매환자 쉼터+치매가족지원사업+치매약제비 지원+조호용품등 지원,031-8082-7100,경기도 양주시청 건강증진과 건강증진과,2025-09-12,5590000,경기도 양주시
양주시 치매안심센터,치매안심센터,경기도 양주시 화합로1426번길 90,경기도 양주시 덕정동 206,37.83814235,127.0680351,2022-12,605.0,쉼터+가족카페+원예치료실등,1,9.0,1.0,작업치료사(1)+행정(1),양주시보건소,김정은,031-8082-7147,2019-05-15,치매조기검진+치매예방프로그램+치매환자 쉼터+치매가족지원사업+치매약제비 지원+조호용품등 지원,031-8082-7100,경기도 양주시청 건강증진과 건강증진과,2025-09-12,5590000,경기도 양주시
신곡치매안심센터,치매안심센터,"경기도 의정부시 신곡로 71, 3층 (신곡동, 신곡1동 행정복지센터)",,37.73309574,127.0562161,2018-12,284.59,,0,2.0,0.0,작업치료사(1)+물리치료사(1),의정부시 보건소,장연국,031-870-6181,,무료치매선별검사+ 치매상담+ 치매예방교육+ 재가치매환자 조호물품 지원+ 치매치료관리비 지원+ 치매 극복의 날 기념행사 등,031-870-6121,의정부시 보건소,2025-09-12,3820000,경기도 의정부시
서초구치매안심센터,치매안심센터,"서울특별시 서초구 염곡말길 9, 4층(염곡동, 내곡느티나무쉼터)",서울특별시 서초구 염곡동 180-2,37.46182487,127.0506972,2008-12,801.12,사무실(1)+검진실(3)+교육상담실(1)+프로그램실(2)+쉼터기억키움학교(1)+교육실(1)+인지카페(1)+안심하우스(1)+준비실(1),1,8.0,6.0,작업치료사(7),가톨릭대학교서울성모병원,강동우,02-591-1833,2024-01-01,"무료치매검사, 고도화장비기반 치매검사, 인지건강프로그램, 치매환자 가족교육 및 지지프로그램, 안심하우스 및 기억키움학교 운영, 치매 홍보서포터즈 운영 등",02-2155-8081,서울특별시 서초구보건소,2025-08-05,3210000,서울특별시 서초구
청도군치매안심센터,치매안심센터,경상북도 청도군 화양읍 산성강변길 472,경상북도 청도군 화양읍 송북리 45,35.654342,128.7381579,2019-12,454.51,사무실+교육+상담실+검진실+쉼터 및 가족카페,0,4.0,2.0,비약물치료사(1)+간호조무사(1)+작업치료사(1)+임상심리사(1)+간호사(2)+사회복지사(2)+청사관리(1),청도군보건소,남중구,054-370-6470,,치매진단등록+환자쉼터+인지재활치료+비약물치료,054-370-6564,청도군치매안심센터,2025-08-11,5190000,경상북도 청도군
서울특별시 중랑구치매안심센터,치매안심센터,"서울특별시 중랑구 봉화산로 190 ,신내2동 중랑구청 제2청사 4층,6층",서울특별시 중랑구 신내동 665,37.60626485,127.094136,2023-01,499.84,사무실(1)+강당(1)+진료실(1)+인지검사실(4)+창고(2)+프로그램실(4),1,11.0,3.0,작업치료사(7),서울북부병원,이용주,02-435-7540,2023-01-01,치매조기검진+치매예방등록관리+지역사회자원강화,02-2094-0869,서울특별시청+중랑구보건소,2025-08-11,3060000,서울특별시 중랑구
보은군치매안심센터,치매안심센터,충청북도 보은군 보은읍 임업길 22,충청북도 보은군 보은읍 삼산리 172-2,36.48703402,127.7155518,2019-06,764.66,사무실+프로그램실+교육실+쉼터,0,8.0,4.0,치위생사(1)+물리치료사(1)+영양사(1)+임상심리사(1),보은군치매안심센터,홍종란,043-540-5642,,인지재활프로그램+예방프로그램+쉼터운영,043-540-5642,충청북도 보은군보건소,2024-11-29,4420000,충청북도 보은군
울진군 치매안심센터,치매안심센터,경상북도 울진군 울진읍 읍내8길 61-8,경상북도 울진군 울진읍 읍내리 563-5,36.99621755,129.4045994,2017-11,320.0,"사무실1,상담실1,카페1,프로그램실1",0,6.0,7.0,작업치료사(1),울진군보건소 치매안심센터,정대교,054-789-5025,,치매치매조기검진 및 대상자 등록관리+인지강화프로그램 및 치매가족프로그램 운영+치매서포터즈 양성,054-789-5000,울진군보건소,2024-07-31,5250000,경상북도 울진군
순천시치매안심센터,치매안심센터,전라남도 순천시 중앙로 232,전라남도 순천시 석현동 35-6,34.966691,127.486072,2024-09,454.85,1층(검진실2+다목적실+돌봄실+가족카페+비품실+진단실+기억PC방+청춘운동실)/2층(사무실+기억친구실+가족교실+두뇌놀이터+문서고),0,8.0,2.0,물리치료사(1)+작업치료사(1),순천시보건소,김지식,061-749-8888,,"인지재활프로그램, 기억력 검사 등",061-749-3612,순천시보건소,2024-11-26,4820000,전라남도 순천시
곡성군치매안심센터,치매안심센터,전라남도 곡성군 곡성읍 곡성로854,전라남도 곡성군 곡성읍 읍내리 220,35.27886716,127.2969046,2019-09,342.72,,0,7.0,1.0,행정업무(1),전라남도 곡성군청,,061-360-8981,2019-09-10,등록관리+쉼터+예방 등,061-360-8980,전라남도 곡성군청,2024-12-04,4860000,전라남도 곡성군
도봉구치매안심센터,치매상담전화센터,"서울특별시 도봉구 마들로 650(도봉월드상가 3,4층)",서울특별시 도봉구 방학동720-33 도봉월드상가 3층 4층,37.66802835,127.047065,2008-01,701.96,"상담실1, 검진실3, 프로그램실3, 사무실1",1,7.0,3.0,작업치료사(6),서울노보스병원,오승용,02-955-3591,2023-01-01,"치매환자의 등록·관리, 치매의 예방·교육 및 홍보, 치매조기검진 등",02-2091-4562,서울특별시 도봉구보건소,2024-12-06,3090000,서울특별시 도봉구
대덕구치매안심센터,치매안심센터,대전광역시 대덕구 동춘당로 187,대전광역시 대덕구 법동 192-1,36.36720857,127.4308384,2019-07,487.0,"사무실, 상담실, 검진실, 프로그램실, 가족카페 등",1,8.0,1.0,5,대덕구보건소,김주연,042-608-4491,2018-07-20,"상담, 등록,조기검진,1:1사례관리, 단기쉼터, 치매카페운영",042-608-4491,대덕구보건소,2020-12-14,6300000,대전광역시
유성구치매안심센터,치매안심센터,대전광역시 유성구 박산로 177,대전광역시 유성구 구암동 91-6,36.354491,127.328811,2020-11,457.0,"사무실, 상담실, 검진실, 프로그램실, 가족카페 등",1,7.0,3.0,4,유성구보건소,신현정,042-611-5112,2018-05-31,"상담, 등록,조기검진,1:1사례관리, 단기쉼터, 치매카페운영",042-611-5112,유성구보건소,2020-12-14,6300000,대전광역시
서구치매안심센터,치매안심센터,대전광역시 서구 둔산서로 100,대전광역시 서구 둔산동 1300,36.355071,127.3833597,2019-04,711.0,"사무실, 상담실, 검진실, 프로그램실, 가족카페 등",1,11.0,4.0,4,서구보건소,박경용,042-288-4470,2018-04-24,"상담, 등록,조기검진,1:1사례관리, 단기쉼터, 치매카페운영",042-288-4470,서구보건소,2020-12-14,6300000,대전광역시
중구치매안심센터,치매안심센터,대전광역시 중구 중앙로 100,대전광역시 중구 대흥동 499-1,36.32557592,127.4212943,2019-08,647.0,"사무실, 상담실, 검진실, 프로그램실, 가족카페 등",1,4.0,1.0,4,중구보건소,구기희,042-288-8180,2018-08-20,"상담, 등록,조기검진,1:1사례관리, 단기쉼터, 치매카페운영",042-288-8180,중구보건소,2020-12-14,6300000,대전광역시
동구치매안심센터,치매안심센터,대전광역시 동구 현암로 22,대전광역시 동구 삼성동 374-1,36.34298597,127.4204612,2019-04,669.0,"사무실, 상담실, 검진실, 프로그램실, 가족카페 등",1,8.0,3.0,6,동구보건소,장선애,042-621-6011,2018-04-10,"상담, 등록,조기검진,1:1사례관리, 단기쉼터, 치매카페운영",042-621-6011,동구보건소,2020-12-14,6300000,대전광역시
강진군치매안심센터,치매안심센터,전라남도 강진군 강진읍 목리길 11,,34.638335,126.775711,2019-10,399.0,사무실(1)+가족카페(1)+교육실(1)+쉼터(1)+검진실(1)+상담실(1)+프로그램실(1),2,6.0,2.0,공무원(1)+작업치료사(2),강진군보건소,,061-430-5294,,치매조기검진+쉼터+찾아가는 치매예방교실+기억채움교실,061-430-5294,강진군보건소,2025-11-19,4920000,전라남도 강진군
장흥군보건소 치매안심센터,치매안심센터,전라남도 장흥군 장흥읍 동교1길 13,전라남도 장흥군 장흥읍 건산리 752-1,34.6770039,126.907038,2018-12,692.0,사무실+상담실+검진실+프로그램실+치매카페+쉼터,0,2.0,7.0,간호조무사(1),장흥군보건소,,061-860-6498,,"치매예방 및 인식개선(교육, 홍보, 선도기관, 파트너양성)+치매조기검진(선별, 진단,정밀)+치매예방등록사업(상담 및 사례관리, 환자 및 가족 지원, 인지강화 프로그램, 에방교실)+치매안심마을 운영+치매쉼터+치매실종예방사업+치매치료비 지원+치매조호물품지원+치매지역사회 지원강화+치매통합관리 정보시스템 구축 운영",061-862-4000,장흥군보건소,2025-11-17,4910000,전라남도 장흥군
진안군치매안심센터,치매안심센터,전북특별자치도 진안군 진안읍 진무로 1189,,35.79730854,127.4347748,2018-10,358.0,,1,10.0,3.0,작업치료사(1)+조무사(1),진안군보건소,,063-430-8582,,치매조기검진+치매의료비지원+치매극복의날 기념행사+한마음 치매극복 걷기대회+치매환자 및 가족 프로그램+치매인식개선사업+치매안심마을운영+치매공공후견인사업+치매파트너 및 파트너플러스 양성+치매극복선도단체+맞춤형 돌봄 사례 등관리+실종예방사업+쉼터운영+조호물품지원 등,,전북특별자치도 진안군청,2025-11-18,4731000,전북특별자치도 진안군
강릉시치매안심센터,치매안심센터,"강원특별자치도 강릉시 남부로17번길 38, 내곡동",강원특별자치도 강릉시 내곡동 413,37.74287093,128.8827493,2019-12,3602.26,사무실+검진실+상담실+쉼터+가족카페+프로그램실,0,20.0,3.0,"보건(1),행정(1)",강릉시 보건소,,033-660-3048,,등록관리+조기검진+예방관리+가족지원+인식개선 및 홍보,033-660-3081,강원특별자치도 강릉시청,2025-11-18,4201000,강원특별자치도 강릉시
강원특별자치도동해시치매안심센터,치매안심센터,강원특별자치도 동해시 발한로 227 동해시치매안심센터 1층,강원특별자치도 동해시 발한동 17-9,37.5495162,129.1081409,2018-09,540.0,가족카페,0,8.0,2.0,행정업무(1)+물리치료사(1)+작업치료사(1)+청사관리(1),동해시치매안심센터,심재희,033-530-2426,,조기검진 및 상담+치매치료관리비지원+조호물품지원+치매환자교실운영+치매가족교실운영+가족카페운영,033-530-2401,강원특별자치도 동해시보건소,2025-11-21,4211000,강원특별자치도 동해시
춘천시 치매안심센터,치매안심센터,강원특별자치도 춘천시 스무숲길 4-46,강원특별자치도 춘천시 석사동 171-8,37.846002,127.746997,2022-12,1311.0,센터장실(1)+사무실(1)+회의실(1)+상담실(5)+교육실(4),0,12.0,3.0,협력의사(3)+작업치료사(1)+청원경찰(1)+행정(6),강원특별자치도 춘천시 보건소,손은진,033-250-4004,,"치매검진+무료 조기검진+정밀검진비 지원+치매환자 치료비(약제비) 지원+조호물품(기저귀,물티슈) 지원+인식표 제공+배회감지기 지원+치매환자 단기쉼터 운영+치매환자 및 가족 지원+상담 및 교육+인지강화프로그램+치매예방프로그램+치매 극복의날 행사+인식개선 및 홍보",033-250-4004,강원특별자치도 춘천시 보건소,2025-11-07,4181000,강원특별자치도 춘천시
청양군치매안심센터,치매안심센터,충청남도 청양군 청양읍 칠갑산로 7길 54,충청남도 청양군 청양읍 읍내리 261-1,36.45501978,126.8049308,2019-11,381.86,검진실+사무실+프로그램실,1,5.0,3.0,"작업치료사(2),+간호조무사(1)",청양군보건의료원,김상경,041-940-4500,,치매환자쉼터+인지재활프로그램+치매가족교실+치매자조모임+치매예방교실,041-940-4551,청양군보건의료원,2025-11-18,4590000,충청남도 청양군
북구 치매상담센터,치매안심센터,부산광역시 북구 덕천로 123,부산광역시 북구 덕천동 139-3,35.21053729,129.0181315,2019-08,998.55,5층 사무실,2,9.0,3.0,작업치료사(3)+임상심리사(1),북구보건소,김유정,051-309-5281,,치매조기검진+치매치료비지원+인지재활프로그램+가족교육 등,051-309-5281,북구보건소,2025-11-07,3320000,부산광역시 북구
금정구 치매안심센터,치매안심센터,부산광역시 금정구 중앙대로 1777,부산광역시 금정구 부곡동 78,35.24205368,129.0924546,2024-12,559.62,,0,10.0,2.0,,부산광역시 금정구보건소,엄지안,051-519-5678,,치매조기검진+치매예방프로그램+치매환자 지원+치매 인식 개선사업 등,051-519-5678,부산광역시 금정구보건소,2025-11-21,3350000,부산광역시 금정구
서구치매안심센터,치매안심센터,"부산광역시 서구 구덕로 127, 4층","부산광역시 서구 토성동5가 56-4, 4층",35.09633318,129.0220599,2020-02,,,2,7.0,2.0,작업치료사(2)+임상심리사(2),서구보건소,양태인,051-240-4912,,치매조기검진+등록관리+치매환자 지원+보호자 상담+지역자원연계+치매예방교육 및 인식개선+프로그램 운영 등,051-240-4912,부산서구보건소,2025-11-18,3260000,부산광역시 서구
함양군 치매안심센터,치매안심센터,경상남도 함양군 함양읍 한들로 141,경상남도 함양군 함양읍 용평리 630-3,35.5196763,127.731782,2018-12,398.0,사무실+상담실+검진실+쉼터+가족카페+프로그램실,1,5.0,5.0,"작업치료사2, 행정인원 2",함양군보건소,,055-960-5355,,치매조기검진+치매환자상담 및 등록관리+조호물품제공+맞춤형사례관리+인지재활프로그램운영+치매가족모임운영+치매인식개선사업+치매환자실종예방사업 등,055-960-5355,경상남도 함양군보건소,2025-11-21,5460000,경상남도 함양군
금천구치매안심센터,치매안심센터,"서울특별시 금천구 시흥대로 123길 11(독산1동 주민센터) 6층, 7층",서울특별시 금천구 독산동 289-5,37.47021905,126.8970437,2009-08,748.1,사무실1(센터장실1)+상담실(5)+기억키움학교1+프로그램실4+휴게실1+가족카페1+화장실4,1,10.0,4.0,작업치료사4,고려대학교 구로병원,병원장 정희진,02-3281-9082,2023-01-01,예방 및 인식개선 사업+조기검진 사업+등록관리사업+치매치료관리비 지원사업+중증치매노인공공후견사업,02-2627-2142,서울특별시 금천구 보건소,2025-11-26,3170000,서울특별시 금천구
강화군치매안심센터,치매안심센터,인천광역시 강화군 강화읍 충렬사로 26-1,인천광역시 강화군 강화읍 남산리 324-1,37.73723039,126.4847095,2018-12,544.36,사무실(2)+프로그램실(2)+검사실(3)+대기실(2),0,3.0,7.0,작업치료사(2)+임상심리사(2)+임상병리사(1)+물리치료사(2)+치과위생사(1)+간호조무사(4)+송영차량 운전수(4),인천광역시 강화군보건소,이은경,032-930-4057,,치매 선별검사 및 진단검사+치매예방 프로그램+치매환자 돌봄+치매환자 지원+치매환자 가족 지원+치매환자 인지재활 프로그램+치매 인식개선 홍보,032-930-4057,인천광역시 강화군보건소,2025-11-20,3570000,인천광역시 강화군
신안군치매안심센터,치매안심센터,전라남도 신안군 압해읍 천사로 1004,,34.83360218,126.3514253,2019-12,191.0,,1,7.0,1.0,작업치료사(1),신안군보건소,김현희,061-240-8081,,치매예방교육 및 인지건강프로그램+치매인식개선 및 예방교육+치매조기검진사업+치매치료관리비지원사업+배회가능 어르신 인식표 무료 보급,,전라남도 신안군청,2025-11-24,5010000,전라남도 신안군
영암군치매안심센터,치매안심센터,전라남도 영암군 영암읍오리정길39,전라남도 영암군 영암읍 춘양리 525,34.79533941,126.7033414,2019-12,439.01,영암군보건소,0,6.0,3.0,의무기록사(1)+물리치료사(1)+작업치료사(2),치매안심센터,최문형,061-470-6030,,치매환자 쉼터+치매예방교실인지강화교실,061-470-6525,영암군보건소,2025-11-01,4940000,전라남도 영암군
달성군치매안심센터,치매안심센터,대구광역시 달성군 현풍읍 현풍중앙로27,대구광역시 달성군 현풍읍 하리 253-2,35.692006,128.446211,2025-06,874.74,사무실(1)+상담실(2)+센터장실(1)+작업치료실(2)+교육실(1)+쉼터(1)+카페(1),1,11.0,4.0,작업치료사(2)+치과위생사(1),달성군보건소,권선영,053-668-3841,,치매선별검사+치매예방프로그램+치매인지재활프로그램 등,053-668-3841,대구광역시 달성군보건소,2025-11-26,3480000,대구광역시 달성군
태안군치매안심센터,치매안심센터,충청남도 태안군 태안읍 서해로 1952-16,충청남도 태안군 태안읍 평천리 698-6,36.75187751,126.3231965,2018-07,330.0,사무실(1)+프로그램실(1)+검진실(3)+로비(1)+가족카페(1),1,10.0,2.0,작업치료사(2)+송영기사(1)+부센터장(1),태안군보건의료원,조수현,041-671-1632,,인지선별검사+치매인식개선활동+치매프로그램운영+맞춤형사례관리 등,041-671-1608,태안군보건의료원,2025-06-19,4620000,충청남도 태안군
부평구치매안심센터,치매안심센터,인천광역시 부평구 주부토로 65,인천광역시 부평구 부평동 434-3,37.500824,126.7249026,2016-09,981.0,사무실(1)+프로그램실(4)+상담실(4),2,34.0,1.0,,인천광역시 부평구보건소,김윤자,032-509-1300,,치매조기선별검진+진단검사+인지건강프로그램운영등,032-509-1300,인천광역시 부평구보건소,2025-05-31,3540000,인천광역시 부평구
성주군치매안심센터,치매안심센터,경상북도 성주군 성주읍 성밖숲길12,경상북도 성주군 성주읍 경산리 436-1,35.91738188,128.2786954,2017-01,333.4,보건소건강증진센터2층,0,4.0,7.0,작업치료사(1)+행정업무지원(4),성주군보건소,,054-930-8187,,인지강화및치매환자교실 운영 등,054-930-8271,성주군보건소,2025-06-20,5210000,경상북도 성주군
진도군치매안심센터,치매안심센터,전라남도 진도군 진도읍 남동1길 40-9,전라남도 진도군 진도읍 남동리 776-26,34.480308,126.2629491,2018-12,,,0,5.0,0.0,작업치료사(2)+공무원(3),진도군보건소,이경희,061-540-6961,,치매조기검진 및 등록관리+인지건강프로그램 등,061-540-6961,전라남도 진도군 보건소,2025-06-23,5000000,전라남도 진도군
[분소]제주도서귀포시치매안심센터(중문분소),치매안심센터,제주특별자치도 서귀포시 천제연로 277 (중문동),제주특별자치도 서귀포시 중문동 1864-1,33.25138876,126.434693,2020-07,109.09,사무실+상담실+검진실+프로그램실,0,1.0,0.0,,제주특별자치도 서귀포시 중문보건지소,현승호,064-760-6555,,치매상담 및 등록 관리사업+치매조기검진+치매환자 조호물품제공+치매치료관리비 지원+인지재활 프로그램 운영 등,064-760-6557,제주특별자치도 서귀포시,2024-03-01,6520000,제주특별자치도 서귀포시
[분소]서귀포시서부치매안심센터(안덕분소),치매안심센터,"제주특별자치도 서귀포시 안덕면 화순중앙로12번길 30-9 (화순리, 안덕보건지소)",제주특별자치도 서귀포시 안덕면 화순리 1158-11,33.250552,126.3313996,2021-07,,,0,1.0,0.0,,제주특별자치도 서귀포시 안덕보건지소,고행선,064-760-0975,,치매조기검진+치매상담 및 등록관리+치매환자 쉼터 운영+조호물품지원 등의 다양한 치매통합서비스 제공,,제주특별자치도 서귀포시,2024-03-01,6520000,제주특별자치도 서귀포시
홍성군치매안심센터,치매안심센터,충청남도 홍성군 홍성읍 문화로 106,충청남도 홍성군 홍성읍 오관리 474-7,36.59664192,126.6630613,2019-01,498.0,사무실+검진실+프로그램실+가족카페+쉼터,0,16.0,3.0,5(작업치료사 등),충청남도 홍성군 보건소,김정식,041-630-9076,,등록+조기검진+인지재활+강화프로그램,041-630-2588,홍성군치매안심센터,2025-06-30,4600000,충청남도 홍성군
진천군치매안심센터,치매안심센터,충청북도 진천군 덕산읍 연미로 29,,36.89921785,127.528885,2018-11,279.0,,0,5.0,2.0,임상심리사(1)+치위생사(1)+영양사(1)+임상병리사(1),충청북도 진천군,허선미,043-539-7782,,치매환자쉼터운영+치매극복의 날 행사+치매예방수칙 및 예방운동 알림+치매파트너 양성+치메안심마을+치매안심등불+찾아가는 기억지키미 운영 등,,충청북도 진천군,2025-06-30,4450000,충청북도 진천군
충주시치매안심센터,치매안심센터,충청북도 충주시 사직산21길 34,충청북도 충주시 문화동1655,36.97085167,127.9280135,2019-12,619.86,사무실(1)+교육실(3)+가족카페(1)+검사실(3),0,10.0,2.0,작업치료사(3)+물리치료사(2)+행정(2),충주시보건소,정상구,043-850-1780,,"치매조기검진,맞춤형사례관리,치매환자쉼터운영,가족교실운영,치매예방프로그램운영",043-850-1780,충청북도 충주시청,2025-06-30,4390000,충청북도 충주시
흥선치매안심센터,치매안심센터,"경기도 의정부시 흥선로 20, 1층 (가능동, 흥선동행정복지센터)",,37.74626788,127.0306477,2018-12,132.0,,0,2.0,0.0,작업치료사(1),의정부시 보건소,장연국,031-870-6166,,무료치매선별검사+ 치매상담+ 치매예방교육+ 재가치매환자 조호물품 지원+ 치매치료관리비 지원+ 치매 극복의 날 기념행사 등,031-870-6121,의정부시 보건소,2025-09-12,3820000,경기도 의정부시
경기도의정부시치매안심센터(송산),치매안심센터,"경기도 의정부시 민락로 360, 5층 (낙양동, 송산3동 공공복합청사)",,37.75318982,127.1137733,2018-12,290.14,,0,5.0,0.0,작업치료사(1)+위생사(1),의정부시 보건소,장연국,031-870-6202,,무료치매선별검사+ 치매상담+ 치매예방교육+ 재가치매환자 조호물품 지원+ 치매치료관리비 지원+ 치매 극복의 날 기념행사 등,031-870-6121,의정부시 보건소,2025-09-12,3820000,경기도 의정부시
서대문구치매안심센터,치매안심센터,서울특별시 서대문구 연희로 290,서울특별시 서대문구 홍은2동 425-3 한국자유총연맹,37.58292926,126.9364454,2009-12,,,1,6.0,5.0,작업치료사(6)+음악치료사(1)+간호조무사(1),서대문구 치매안심센터,김어수,02-379-0183,,경증 치매환자 대상 단기 보호(쉼터)운영+치매가족교육+온라인 치매예방 프로그램+치매가족 카페+힐링 프로그램 등,02-330-1738,서대문구보건소,2025-09-01,3120000,서울특별시 서대문구
아산시치매안심센터,치매안심센터,충청남도 아산시 번영로 216번길 18,충청남도 아산시 모종동 574-1,36.78291637,127.0140673,2018-11,720.0,쉼터+가족카페,0,13.0,1.0,작업치료사(1),충청남도 아산시,최원경,041-537-3474,,쉼터운영(인지재활+인지강화+치매예방프로그램),041-537-3474,충청남도 아산시,2025-08-31,4520000,충청남도 아산시
동남구치매안심센터,치매안심센터,충청남도 천안시 동남구 버들로 40,충청남도 천안시 동남구 문화동 112-1,36.80718993,127.1514636,2018-01,578.0,사무실2+프로그램실1+상담실1+검사실1+쉼터1+가족카페1,0,11.0,2.0,작업치료사(3)+기타(1),동남구보건소,정정희,041-521-3343,,치매조기검진+인지재활+쉼터+가족지원사업 등,041-521-5008,충청남도 천안시청,2025-09-01,4490000,충청남도 천안시
서북구치매안심센터,치매안심센터,충청남도 천안시 서북구 서부8길 29,충청남도 천안시 서북구 성정동 684-1,36.8197764,127.1398813,2012-03,489.0,사무실2+프로그램실2+상담실1+검사실1+쉼터1+가족카페1,0,9.0,3.0,치위생사(1)+작업치료사(2)+임상심리사(1),서북구보건소,이현기,041-521-5740,,치매조기검진+인지재활+쉼터+가족지원사업 등,041-521-5928,충청남도 천안시청,2025-09-01,4490000,충청남도 천안시
양천구치매안심센터,치매안심센터,"서울특별시 양천구 남부순환로 407, 4층(신월동, 신월보건지소)",서울특별시 양천구 신월동 131-4,37.53133859,126.831824,2008-05,630.6,사무실(1)+상담실(1)+검진실(2)+진료실(1)+훈련실(3)+기억키움학교(1) 등,1,12.0,4.0,작업치료사(5)+임상심리사(1)+운동치료사(1),이화의대부속 목동병원,유경하,02-2698-8680,2008-03-27,치매검사+치매 상담 및 등록관리+치매가족지원+치매인식개선+인지강화 및 치매예방교실 운영 등,02-2620-4348,서울특별시 양천구청,2025-09-04,3140000,서울특별시 양천구
군포시치매안심센터,치매안심센터,경기도 군포시 산본로 329,,37.3599873,126.9330897,2018-12,,,0,10.0,4.0,,군포시보건소,,031-389-4988,,무료 치매검사+치매예방프로그램+치매환자쉼터+치매가족지원프로그램+조호물품 지원+치매치료관리비 지원+치매환자 실종예방+치매안심마을 운영+치매 인식개선,,경기도 군포시청,2025-09-11,4020000,경기도 군포시
문경시치매안심센터,치매안심센터,경상북도 문경시 점촌1길 13,경상북도 문경시 점촌동 234-12,36.5963534775,128.1980094334,2019-10,337.73,사무실(1)+검사실(1)+상담실(1)+프로그램실(2)+회의실(1)+가족카페(1),1,12.0,2.0,작업치료사(1)+임상심리사(1)+기타(4),경상북도 문경시 보건소,박애주,054-555-2033,,치매조기검진사업+치매쉼터운영+치매보듬마을운영+치매조호물품지원+치매치료비지원+실종노인 발생예방 및 찾기 사업+치매공공후견사업+치매환자 맞춤형 사례관리사업+치매예방관리사업+치매가족 및 보호자 지원사업+배회가능 어르신 인식표 보급 사업+치매인식개선사업+치매파트너사업+치매안심센터 분소 설치 및 운영,054-550-8084,경상북도 문경시 보건소,2025-09-18,5120000,경상북도 문경시
종로구 치매안심센터,치매안심센터,서울특별시 종로구 평창문화로 50,서울특별시 종로구 평창동 235-2,37.60542184,126.9669268,2009-11,475.52,사무실(1)+가족카페(1)+기억키움학교(1)+프로그램실(1)+진료실(1)+검진실(2)+강당(1)+서고(1)+화장실(4),1,6.0,4.0,작업치료사(6)+행정(1),서울대학교병원,박지은,02-3675-9001,2024-01-01,치매예방 및 인식개선사업+치매조기검진 사업+치매예방등록관리 사업+저소득층 치매치료비 및 원인확진검사비 지원 사업+치매지역사회자원강화 사업 등,02-2148-3603,서울특별시 종로구보건소,2025-06-23,3000000,서울특별시 종로구
영덕군치매안심센터,광역치매센터,경상북도 영덕군 영덕읍 군청길 53,,36.4135451232,129.3735579543,2019-07,544.76,"가족쉼터실, 상담실, 검진실, 교육실, 프로그램실(2), 사무실, 공보의 숙소",3,8.0,2.0,작업치료사(2),영덕군치매안심센터,김재희,054-730-7177,,무료치매검사+치매극복의날기념행사+치매홍보서포터즈 운영등,054-880-3796,경상북도청 보건정책과 외로움대책팀,2023-06-01,5180000,경상북도 영덕군
횡성군보건소,치매안심센터,강원특별자치도 횡성군 횡성읍 횡성로 379,,37.4871296,127.9844504,2019-12,,사무실+검진실,1,7.0,1.0,작업치료사(2)+공무원행정인력(3),횡성군보건소,김영대,033-340-5653,,인지재활프로그램,033-340-5653,횡성군보건소,2023-08-31,4261000,강원특별자치도 횡성군
고성군치매안심센터,치매안심센터,강원특별자치도 고성군 간성읍 수성로 30,강원특별자치도 고성군 간성읍 신안리 178,38.37761662,128.4721409,2021-01,,사무실(1)+프로그램실(1)+가족카페(1)+검진실(2)+휴게실(1)+창고(1),0,6.0,0.0,작업치료사(4),강원특별자치도 고성군보건소,김선미,033-680-3798,,치매조기검진사업+쉼터+가족지지+인지재활 등,033-680-3798,강원특별자치도 고성군보건소,2023-08-31,4341000,강원특별자치도 고성군
목포시치매안심센터,치매안심센터,"전라남도 목포시 수문로 32, 트윈스타 3층 목포시치매안심센터(남교동)",전라남도 목포시 남교동 164,34.7931322,126.3829337,2022-12,1048.0,,0,11.0,3.0,작업치료사(2)+기타(3),전라남도 목포시,김경희,061-270-4271,2018-04-13,등록관리+프로그램 운영,061-270-4271,전라남도 목포시,2025-11-05,6460000,전라남도
서구치매안심센터,치매안심센터,"인천광역시 서구 봉오재3로94번길11, 5층","인천광역시 서구 가정동 618-5, 5층",37.52682789,126.6704777,2018-12,1814.0,구립 서구치매전담형주야간보호센터 치매안심돌봄터,0,24.0,1.0,,인천광역시 서구보건소,장준영,032-718-0630,,치매 선별검사 및 진단검사+치매예방 프로그램+치매환자 돌봄+치매환자 지원+치매환자 가족 지원+치매환자 인지재활 프로그램+치매 인식개선 홍보,032-718-0630,인천광역시 서구보건소,2025-07-03,3560000,인천광역시 서구
전북특별자치도광역치매센터,광역치매센터,"전북특별자치도 전주시 완산구 서원로 328, 2층",,35.81213116,127.1302611,2010-12,,,1,1.0,3.0,정신건강임상심리사(1)+작업치료사(3),예수병원,한명일,063-247-6082,2025-01-01,치매관리사업 계획+치매연구치매안심센터 및 노인복지시설 기술지원+치매관련 종사인력에 대한 교육훈련+치매환자 및 가족에 대한 치매의 예방 교육 및 홍보 등,,전북특별자치도청,2025-01-24,6540000,전북특별자치도
서귀포시동부보건소치매안심센터,치매안심센터,제주특별자치도 서귀포시 남원읍 태위로 527,제주특별자치도 서귀포시 남원읍 남원리 2359-1,33.275629,126.703417,2018-07,364.29,사무실+상담실+검진실+프로그램실+치매카페,0,3.0,3.0,,제주특별자치도 서귀포시 동부보건소,강은아,064-760-6141,,등록관리+조기검진+단기쉼터 및 치매 카페 운영+치매 인식개선 및 홍보+치매치료관리 지원 등,064-760-6125,제주특별자치도 서귀포시,2024-03-01,6520000,제주특별자치도 서귀포시
서귀포보건소치매안심센터,치매안심센터,제주특별자치도 서귀포시 중앙로101번길 52,제주특별자치도 서귀포시 서홍동 447-3,33.253426,126.555363,2018-07,494.01,사무실+상담실+검진실+프로그램실+치매카페,0,7.0,2.0,,제주특별자치도 서귀포시 서귀포보건소,현승호,064-760-6555,,등록관리+조기검진+단기쉼터 및 치매 카페 운영+치매 인식개선 및 홍보+치매치료관리 지원 등,064-760-6555,제주특별자치도 서귀포시,2024-03-01,6520000,제주특별자치도 서귀포시
서귀포시서부보건소치매안심센터,치매안심센터,제주특별자치도 서귀포시 대정읍 최남단해안로 15번길 12,제주특별자치도 서귀포시 대정읍 하모리 767-8,33.218673,126.253245,2018-07,290.85,사무실+상담실+검진실+프로그램실+치매카페+쉼터,0,4.0,0.0,,제주특별자치도 서귀포시 서부보건소,고행선,064-760-6249,,등록관리+조기검진+단기쉼터 및 치매 카페 운영+치매 인식개선 및 홍보+치매치료관리 지원 등,064-760-6249,제주특별자치도 서귀포시,2024-03-01,6520000,제주특별자치도 서귀포시
영월군 치매안심센터,치매안심센터,강원특별자치도 영월군 영월읍 하송로 46-43,강원특별자치도 영월군 영월읍 하송리 236-2,37.18544643,128.461674,2018-12,462.0,사무실+진료실+검진실+상담실+교육실+쉼터(프로그램실)+카페,0,5.0,1.0,작업치료사(2)+총괄(1),강원특별자치도 영월군 보건소,호희남,033-370-5441,,무료치매검사+맞춤형 사례관리+치매극복의 날 기념행사+치매파트너 양성+인지재활 프로그램+가족교실(헤아림)+치매예방교실+치매극복주간 기념행사(인식개선 캠페인 등) 제공 등,1577-0545,강원특별자치도 영월군청,2025-09-03,4271000,강원특별자치도 영월군
대전광역시 중구 치매안심센터,치매안심센터,대전광역시 중구 중앙로 100,대전광역시 중구 대흥동 499-1,36.32557502,127.4212953,2018-12,647.0,사무실(1)+프로그램실(3)+로비 등,2,9.0,2.0,작업치료사(2)+임상심리사(2),대전광역시 중구보건소,황효숙,042-288-8180,,치매환자 등록 관리+가족교육+예방교육+치매검사+인지훈련 등,042-288-8180,대전광역시 중구청,2025-09-02,3650000,대전광역시 중구
의성군치매안심센터,치매안심센터,"경상북도 의성군 의성읍 구봉길 228, 의성군보건소 4층","경상북도 의성군 의성읍 도서리 104-1, 의성군보건소 4층",36.345603,128.6976946,2019-12,479.0,사무실(1)+진단실(1)+상담실(2)+프로그램실(1)+교육실(1)+가족카페(1),2,4.0,5.0,작업치료사(2)+물리치료사(1),경상북도 의성군보건소,이선희,054-830-6660,,치매 조기검진+치매환자 맞춤형 사례관리+치매환자쉼터+치매 가족 지원+치매 인식 개선+치매 파트너+치매보듬마을 등,054-830-6222,경상북도 의성군청,2025-09-03,5150000,경상북도 의성군
부산광역시 강서구 치매안심센터,치매안심센터,부산광역시 강서구 낙동북로102번길 76,부산광역시 강서구 강동동 60-3,35.21620512,128.9376702,2018-12,,,1,9.0,3.0,임상심리사(1)+작업치료사(1),부산광역시 강서구청,천동환,051-970-2600,,치매상담+치매조기검진사업+치매예방교실+치매환자쉼터+치매가족교실+치매치료비지원+치매환자조호물품지원+치매인식개선사업 등,051-970-3415,부산광역시 강서구 보건소,2025-09-01,3360000,부산광역시 강서구
[분소]서귀포시동부치매안심센터(표선분소),치매안심센터,"제주특별자치도 서귀포시 표선면 표선중앙로 17 (표선리, 표선보건지소)",제주특별자치도 서귀포시 표선면 표선리 312,33.331192,126.830292,2021-05,,,0,0.0,0.0,,제주특별자치도 서귀포시 표선보건지소,강은아,064-760-6365,,치매 조기 검진+치매상담 및 등록관리+치매 환자 쉼터+조호물품 지원 등의 치매통합서비스 제공,,제주특별자치도 서귀포시,2024-03-01,6520000,제주특별자치도 서귀포시
[분소]서귀포시동부치매안심센터(성산분소),치매안심센터,"제주특별자치도 서귀포시 성산읍 고성오조로 42 (고성리, 성산보건지소)",제주특별자치도 서귀포시 성산읍 고성리 336-2,33.44655494,126.9157478,2021-05,,,0,0.0,0.0,,제주특별자치도 서귀포시 성산보건지소,강은아,064-760-6477,,치매 조기 검진+치매상담 및 등록관리+치매 환자 쉼터+조호물품 지원 등의 치매통합서비스 제공,,제주특별자치도 서귀포시,2024-03-01,6520000,제주특별자치도 서귀포시
권선구치매안심센터,치매안심센터,경기도 수원시 권선구 호매실로 22-50(탑동),경기도 수원시 권선구 탑동 910,37.25874424,126.9711281,2019-07,498.0,사무실(1)+프로그램실(3)+상담검진실(3)+가족카페(1),2,13.0,3.0,작업치료사(2),권선구보건소,조성신,031-5191-0425,,치매조기검진+치매치료관리비지원+인지프로그램운영+치매가족지지프로그램 운영+치매인식개선 및 홍보 등,031-5191-0421,경기도 수원시 권선구보건소,2025-11-14,3740000,경기도 수원시
장안구치매안심센터,치매안심센터,경기도 수원시 장안구 송원로 101 (조원동),경기도 수원시 장안구 조원동 888,37.30402833,127.0103129,2018-10,482.0,사무실(2)+프로그램실(4)+상담검진실(3)+진료실(1)+가족카페(1),2,11.0,4.0,작업치료사(3),장안구보건소,김정원,031-5191-0230,,치매조기검진+치매치료관리비지원+인지프로그램운영+치매가족지지프로그램 운영 등,031-5191-0222,경기도 수원시 장안구보건소,2025-11-14,3740000,경기도 수원시
군산시치매안심센터,치매안심센터,전북특별자치도 군산시 공단대로 482(나운동),전북특별자치도 군산시 나운동 808-2,35.9646059,126.6897785,2018-07,956.7,사무실(3)+상담실(3)+프로그램실(2)+가족카페(1),1,10.0,5.0,임상심리사(1)+작업치료사(4),군산시보건소,,063-454-5870,2015-07-01,"무료치매검사, 치매환자쉼터운영,치매예방 및 인지강화프로그램 운영 등",063-454-5870,전북특별자치도 군산시청,2025-11-12,4671000,전북특별자치도 군산시
서울특별시 구로구 치매안심센터,치매안심센터,"서울특별시 구로구 디지털로 243, 2층 (지-하이시티 빌딩)","서울특별시 구로구 구로동 237, 2층",37.48199097,126.892351,2009-12,530.25,검진실+가족쉼터 및 카페+프로그램실,1,11.0,5.0,작업치료사(5)+운동처방사(1)+음악치료사(1)+송영인력(1)+이동카사업전담인력(1),고려대학교 구로병원,,02-2612-7041,2024-01-01,무료치매검사+정상 고위험 치매 프로그램 및 인지프로그램 운영+치매가족프로그램 등,02-860-3273,서울특별시 구로구 보건소,2025-11-17,3160000,서울특별시 구로구
청송군치매안심센터,치매안심센터,경상북도 청송군 청송읍 의료원길 19,경상북도 청송군 청송읍 금곡리 1056-54,36.43113169,129.0518042,2018-12,413.0,사무실(1)+프로그램실(1)+회의실(1)+진단실(1)+가족카페(1),0,10.0,2.0,작업치료사(1),청송군보건의료원,윤홍배,054-870-7341,,치매조기검진+치매환자쉼터+인지강화교실+치매예방교실+치매예방교육+치매서포터즈 및 치매극복선도단체 양성+치매보듬마을 운영+우리마을예쁜치매쉼터운영+치매환자사례관리+치매환자가족교실+자조모임운영+치매치료관리비지원+조호물품제공+배회인식표 및 지문인기 등록+치매극복 전국걷기행사+치매극복의날 기념 행사+치매관사업 DB자료 등록 및 분석,,경상북도 청송군청,2025-11-17,5160000,경상북도 청송군
제주시 제주치매안심센터,치매안심센터,제주특별자치도 제주시 연삼로 264,제주특별자치도 제주시 도남동 567-1,33.49159994,126.520239,2018-08,643.65,사무실(1)+검사실(3)+쉼터(1)+프로그램실(1)+로비(1)+가족카페(1)+창고(1),0,12.0,2.0,작업치료사(1),제주특별자치도 제주시 제주보건소,이민철,064-728-8490,,치매상담 및 등록관리+치매조기검진+치매예방 및 인지강화교실+경증치매 쉼터 프로그램+조호물품 지원+치매치료비 지원+치매가족지원 프로그램+인식개선 및 교육홍보사업+안심마을 운영 등,064-728-8474,제주특별자치도 제주시 제주보건소,2025-03-20,6510000,제주특별자치도 제주시
평창군치매안심센터,치매안심센터,강원특별자치도 평창군 평창읍 종부로 61,강원특별자치도 평창군 평창읍 종부리 504,37.36049168,128.388852,2017-12,472.0,,0,4.0,3.0,5,평창군보건의료원,평창군수,033-330-4900,,치매환자 쉼터프로그램+치매가족헤아림프로그램+치매예방인지재활프로그램+치매재가환자방문인지재활프로그램,033-330-4830,평창군보건의료원,2024-09-27,4281000,강원특별자치도 평창군
동안치매안심센터,치매안심센터,경기도 안양시 동안구 관악대로 375,경기도 안양시 동안구 관양동 1432-15,37.404789,126.96453,2019-11,891.25,사무실+쉼터+프로그램실+검진실+가족 카페 등,1,10.0,1.0,작업치료사(2),동안구보건소,김순기,031-8045-6801,,무료 치매검사+쉼터운영+치매극복의 날 기념행사 등,,안양시 동안구보건소,2025-12-15,3830000,경기도 안양시
만안치매안심센터,치매안심센터,경기도 안양시 만안구 문예로 48 (6층),경기도 안양시 만안구 안양동 532-1,37.385898,126.932945,2019-04,406.8,사무실+쉼터+프로그램실+검진실+가족 카페 등,1,8.0,1.0,작업치료사(2)+기타(1),만안구보건소,한영자,031-8045-3038,,무료 치매검사+쉼터 운영+치매극복의 날 기념행사 등,,안양시 만안구보건소,2025-12-15,3830000,경기도 안양시
사하구 치매안심센터(다대분소),치매안심센터,부산광역시 사하구 다대로530번길 7,부산광역시 사하구 다대동 933-1,35.05916984,128.9713294,2023-02,17.68,치매안심센터운영,0,1.0,0.0,,부산광역시 사하구보건소,박승아,051-220-0034,,치매조기검진+조호물품 지원 등,051-220-0034,부산광역시 사하구보건소,2025-12-16,3340000,부산광역시 사하구
사하구 치매안심센터(신평분소),치매안심센터,부산광역시 사하구 하신중앙로 185,부산광역시 사하구 신평동 646-2,35.09496763,128.9615408,2020-04,200.0,치매안심센터운영,0,6.0,1.0,,부산광역시 사하구보건소,박승아,051-220-0074,,치매조기검진+치료관리비 지원+치매 인식 개선을 위한 홍보 캠페인 등,051-220-0074,부산광역시 사하구보건소,2025-12-16,3340000,부산광역시 사하구
사하구 치매안심센터(본소),치매안심센터,부산광역시 사하구 까치고개로 50-10,부산광역시 사하구 괴정동 12-31,35.10448398,129.0063462,2019-05,997.87,치매안심센터운영,0,7.0,2.0,작업치료사(2)+운전(1),부산광역시 사하구보건소,박승아,051-220-5987,,치매조기검진+치료관리비 지원+치매 인식 개선을 위한 홍보 캠페인 등,051-220-5986,부산광역시 사하구보건소,2025-12-16,3340000,부산광역시 사하구
충청남도 계룡시 치매센터,치매안심센터,충청남도 계룡시 장안로 54,충청남도 계룡시 금암동 10,36.2730058,127.250047,2019-11,165.0,,0,3.0,0.0,"작업치료사(1),행정(3)",계룡시보건소,임방원,042-840-3681,,무료치매검사,,충청남도 계룡시청,2023-07-13,5580000,충청남도 계룡시
홍천군치매안심센터,치매안심센터,강원특별자치도 홍천군 홍천읍 홍천로1길 9,,37.689933,127.875548,2019-12,657.42,사무실(3)+교육실(1)+진료실(1)+대기실(2),0,7.0,4.0,치위생사(1)+작업치료사(2)+행정업무(10),홍천군보건소,원은숙,033-430-4055,,무료 치매조기검진+치매환자 및 가족 지원 프로그램+치매환자 치료비 지원+치매환자 돌봄 물품지원+치매인식개선사업 등,033-432-7801,강원특별자치도 홍천군청,2023-10-05,4251000,강원특별자치도 홍천군
포천시치매안심센터 영북분소,치매안심센터,경기도 포천시 영북면 영북로166,경기도 포천시 영북면 운천리 340-6,38.0892943195,127.2756336536,2018-12,122.0,사무실+대기실+프로그램실,0,1.0,0.0,작업치료사(1),경기도 포천시보건소,포천시보건소장,031-538-4860,,치매검진+치매인지강화 프로그램,031-538-4860,경기도 포천시청,2024-11-14,5600000,경기도 포천시
포천시치매안심센터 일동분소,치매안심센터,경기도 포천시 일동면 소야길9,경기도 포천시 일동면 기산리 88-31,37.9558113615,127.315347,2020-08,98.0,사무실+대기실+프로그램실,0,1.0,0.0,작업치료사(1),경기도 포천시보건소,포천시보건소장,031-538-4547,,치매검진+치매인지강화 프로그램,031-538-4547,경기도 포천시청,2024-11-14,5600000,경기도 포천시
포천시치매안심센터,치매안심센터,경기도 포천시 삼육사로 2186번길 11-15,경기도 포천시 선단동 629-1,37.85346198,127.1593101,2018-09,591.0,사무실+회의실+교육실+검진실,0,6.0,1.0,"작업치료사(3), 행정(2)",경기도 포천시보건소,포천시보건소장,031-538-4831,,치매검진+치매인지강화 프로그램,031-538-4831,경기도 포천시청,2024-11-14,5600000,경기도 포천시
통영시 치매센터,치매안심센터,경상남도 통영시 안개4길 102(무전동),경상남도 통영시 무전동 401-1,34.85979047,128.4323385,2019-12,310.77,사무실,0,8.0,2.0,행정업무(7),경상남도 통영시,천영기,055-650-6100,,조기치매검진+치매환자상담및등록관리고위험군집중검진및등록관리+파트너선도단체양성+인식개선및홍보+사례관리운영+인지강화교실운영+쉼터운영+기족교실운영+치매환자실종예방관리비지원+정밀진단비지원,055-650-6100,경상남도 통영시,2025-12-18,5330000,경상남도 통영시
세종특별자치시광역치매센터,광역치매센터,세종특별자치시 조치원읍 수원지1길 16,세종특별자치시 조치원읍 평리 12,36.60725506,127.3000196,2017-01,439.0,사무실(1)+소회의실(1)+상담실(1)+대회의실(1)+체험관(1),1,1.0,3.0,작업치료사(2),충남대학교병원,김정란,044-867-2851,2022-12-01,치매 기획+연구+교육+기술지원사업(광역),044-300-5723,세종특별자치시청,2025-12-18,5690000,세종특별자치시
광명시치매안심센터,치매안심센터,경기도 광명시 소하로 196 3층,경기도 광명시 소하동 1344-1 3층,37.4465998,126.8949732,2019-01,733.04,사무실(1)+프로그램실(1)+협력의사상담실(1)+상담실(2),1,16.0,1.0,작업치료사(1)+보건직(1),광명시치매안심센터,이현숙,02-2680-5830,,치매조기검진+치매극복의날 기념행사+치매서포터즈양성+치매안심마을 운영+치매인지프로그램운영 등,02-2680-5532,경기도 광명시 보건소,2025-12-09,3900000,경기도 광명시
예천군치매안심센터,치매안심센터,경상북도 예천군 예천읍 군청길 33,경상북도 예천군 예천읍 노상리 125-1,36.65769827,128.4529801,2020-12,350.0,사무실(2)+프로그램실(2)+검진실(1)+상담실(1),0,12.0,1.0,센터장(1)부센터장(1)팀장(1)행정(2)작업치료사(1),예천군보건소,안남기,054-650-8100,,치매조기검진+치매등록+치매환자쉼터+인지강화교실+치매예방교실+치매예방교육+치매서포터즈 및 치매극복선도단체 양성+치매보듬마을 운영+우리마을예쁜치매쉼터 운영+맞춤형사례관리+가족교실·자조모임운영+치매치료관리비지원+조호물품제공+배회인식표 및 배회감지기 지원+치매극복 캠페인 등,054-650-8100,경상북도 예천군 보건소,2025-12-09,5230000,경상북도 예천군
연제구치매안심센터,치매안심센터,부산광역시 연제구 중앙대로1038번길 40,부산광역시 연제구 연산동2400,35.17937451,129.0788446,2018-11,780.06,상담실2+검진실+센터장실+프로그램실+기억학교+회의실+가족나눔실+사무실2,2,11.0,2.0,심리상담사(1)+작업치료사(2),연제구보건소,신승건,051-665-5481,2018-11-18,치매상담검진+환자 및 가족 지원+인식개선홍보+치매사례관리,051-665-5481,부산광역시 연제구 보건소,2025-12-09,3370000,부산광역시 연제구
김포시치매안심센터 보건사업과,치매안심센터,경기도 김포시 사우중로 73번길 52  래미안프라자 4층,경기도 김포시 북변동 817,37.62308177,126.7211346,2018-06,698.27,,2,8.0,1.0,작업치료사(3) +기타(1),김포시 치매안심센터,구영미,031-5186-4169,,치매선별검사+치매예방 및 인지저하 프로그램+치매극복 선도학교 운영+치매치료관리비+치매공공후견인+조호물품제공,031-5186-4169,경기도 김포시 보건소,2025-12-08,4090000,경기도 김포시
철원군치매안심센터,치매안심센터,강원특별자치도 철원군 갈말읍 군탄로16,강원특별자치도 철원군 갈말읍 군탄리 960-2,38.1481382,127.3025602,2018-11,1242.28,사무실(1)+회의실(1)+프로그램실(1)+검진실(2)+카페(1)+화장실(3)+엘리베이터(1),0,3.0,3.0,작업치료사(1)+간호조무사(1)+행정(1),철원군보건소,보건소장,033-450-5105,2018-11-01,치매어르신쉼터프로그램+농촌치유프로그램+치매조기검진 및 진단검사+치매예방교실프로그램+찾아가는경노당프로그램+분소운영+치매안심마을프로그램+치매인식개선캠페인 및 파트너양성교육+치매실종예방교실,033-450-5105,강원도 철원군 보건소,2024-11-20,4301000,강원특별자치도 철원군
세종특별자치시 치매안심센터(어진동),치매안심센터,세종특별자치시 시청대로 583,,36.4953831457,127.3188085003,2019-12,452.0,사무실(1)+프로그램실(1)+상담실(1)+검진실(1)+교육실(1)+가족카페(1)+쉼터(1),0,4.0,1.0,,세종특별자치시보건소,강민구,044-301-2000,,치매검진+상담+쉼터+가족교실 프로그램 등 운영(기초),044-301-2000,세종특별자치시보건소,2025-12-18,5690000,세종특별자치시
세종특별자치시 치매안심센터(조치원),치매안심센터,세종특별자치시 조치원읍 대첩로 32,세종특별자치시 조치원읍 신흥리 53-1,36.59626916,127.2928906,2019-12,334.0,사무실(1)+프로그램실(2)+상담실(1)+검진실(3)+가족카페(1),1,4.0,1.0,,세종특별자치시보건소,강민구,044-301-2000,,치매검진+상담+쉼터+가족교실 프로그램 등 운영(기초),044-301-2000,세종특별자치시보건소,2025-12-18,5690000,세종특별자치시
부여군 치매안심센터,치매안심센터,충청남도 부여군 부여읍 성왕로 205,충청남도 부여군 부여읍 구아리 136,36.28305231,126.9093363,2024-12,500.0,사무실(1)+검진실(1)+상담실(1)+프로그램실(3)+가족카페(1)+로비(1)+사랑방(1),0,10.0,3.0,작업치료사(2),충청남도 부여군보건소,,041-830-8727,,치매노인 등록 및 관리+치매노인 및 보호자에 대한 상담 지원+치매조기검진+치매치료관리비 지원 및 치매환자 사례관리+치매인지재활 프로그램+치매가족교실 및 자조모임 등,041-830-8600,충청남도 부여군청,2025-12-15,4570000,충청남도 부여군
논산시치매안심센터,치매안심센터,충청남도 논산시 논산대로 408,충청남도 논산시 관촉동 329-2,36.19653553,127.1047397,2018-11,,가족카페+검진실+상담실+쉼터 등,0,11.0,3.0,임상심리사(1) 작업치료사(2),논산시보건소,김배현,041-746-6921,,치매조기검진+치매예방교육+치매환자등록관리+치매환자 가족교실 및 자조모임+치매환자 쉼터운영 등,041-746-6921,충청남도 논산시 보건소,2025-12-28,4540000,충청남도 논산시
호원치매안심센터,치매안심센터,"경기도 의정부시 신흥로 115, 별관 3층 (호원동, 호원2동행정복지센터)",,37.72645877,127.0431115,2019-12,148.58,,0,3.0,1.0,물리치료사(1)+위생사(1),의정부시 보건소,장연국,031-870-6124,,무료치매선별검사+ 치매상담+ 치매예방교육+ 재가치매환자 조호물품 지원+ 치매치료관리비 지원+ 치매 극복의 날 기념행사 등,031-870-6121,의정부시 보건소,2025-09-12,3820000,경기도 의정부시
보건소치매센터,치매안심센터,경상남도 남해군 남해읍 선소로 6,경상남도 남해군 남해읍 차산리 645-1,34.84474988,127.8987479,2020-01,404.0,보건소 치매예방팀,1,8.0,2.0,치위생사(1)+작업치료사(1)+행정(3),남해군 보건소,곽기두,055-860-8791,,치매환자 쉼터 운영 및 치매조기검진,055-860-8693,남해군 보건소,2025-04-17,5430000,경상남도 남해군
목포시 치매안심센터,치매안심센터,전라남도 목포시 수문로 32,전라남도 목포시 남교동 164,34.79313246,126.3829319,2018-04,1046.0,,2,12.0,3.0,"5(작업치료사3, 방사선사1, 간호조무사1)",전라남도 목포시 하당보건지소,김경희,061-270-4271,,치매선별검사+치매프로그램+치매환자등록관리,061-270-4271,전라남도 목포시청,2025-04-23,4800000,전라남도 목포시
울산광역시 동구보건소 치매안심센터,치매안심센터,울산광역시 동구 봉수로 155,울산광역시 동구 화정동 222,35.505086,129.4164300358,2019-08,401.0,상담실(2)+쉼터+교육실+프로그램실(2)+요리실,1,8.0,1.0,작업치료사(2),울산광역시 동구보건소,박수환,052-209-4060,,"치매예방 및 인지강화 프로그램, 돌봄 쉼터, 가족교실, 힐링프로그램, 가족 자조모임 운영",052-209-4060,울산광역시 동구보건소,2025-03-06,3710000,울산광역시 동구
